id	type	woeId	label	wikiId	longitude	latitude	population	stateLabel	stateId	countryLabel	countryId	parentId
b19d76b4	CountyAdminArea	12589800	Abbeville County, South Carolina	Abbeville_County,_South_Carolina	-82.49045	34.24865	24527	South Carolina	540d0a4b	United States	f4aa12bb	540d0a4b
1c832332	CityTown	735305	Abrantes	Abrantes	-8.19993	39.46137	45350	Santarém, Portugal	9f5562f7	Portugal	a2222b56	9f5562f7
cdc74dcb	StateAdminArea	7153350	Abruzzo	Abruzzo	13.9009	42.2888	1307919			Italy	09edd772	09edd772
9dc3f935	CountyAdminArea	12588596	Acadia Parish, Louisiana	Acadia_Parish,_Louisiana	-92.38697	30.26516	62045	Louisiana	d8434284	United States	f4aa12bb	d8434284
6d88a149	CountyAdminArea	12590304	Accomack County, Virginia	Accomack_County,_Virginia	-75.65912	37.74323	32316	Virginia	b8fc73b9	United States	f4aa12bb	b8fc73b9
412d8d65	StateAdminArea	2344844	Acre (state)	Acre_(state)	-70.30189	-9.12846	733559			Brazil	618cd974	618cd974
f77100ac	CountyAdminArea	12588034	Ada County, Idaho	Ada_County,_Idaho	-116.24447	43.45983	481587	Idaho	342f5b41	United States	f4aa12bb	342f5b41
73b891f1	CountyAdminArea	12588272	Adair County, Iowa	Adair_County,_Iowa	-94.47101	41.33064	7152	Iowa	12a2001f	United States	f4aa12bb	12a2001f
b9d16f19	CountyAdminArea	12588476	Adair County, Kentucky	Adair_County,_Kentucky	-85.2851	37.11861	19202	Kentucky	c32ba685	United States	f4aa12bb	c32ba685
2cf79e0a	CountyAdminArea	12588966	Adair County, Missouri	Adair_County,_Missouri	-92.60072	40.19177	25343	Missouri	2fa59461	United States	f4aa12bb	2fa59461
d6deea01	CountyAdminArea	12589615	Adair County, Oklahoma	Adair_County,_Oklahoma	-94.6402	35.89994	22194	Oklahoma	ca8120a2	United States	f4aa12bb	ca8120a2
c80c5b17	CountyAdminArea	12587728	Adams County, Colorado	Adams_County,_Colorado	-104.37974	39.86963	517421	Colorado	dd0a216b	United States	f4aa12bb	dd0a216b
b187468f	CountyAdminArea	12588035	Adams County, Idaho	Adams_County,_Idaho	-116.4943	44.85638	4294	Idaho	342f5b41	United States	f4aa12bb	342f5b41
0dbd5949	CountyAdminArea	12588078	Adams County, Illinois	Adams_County,_Illinois	-91.21246	39.97857	65435	Illinois	33204009	United States	f4aa12bb	33204009
c269c5fb	CountyAdminArea	12588180	Adams County, Indiana	Adams_County,_Indiana	-84.93804	40.74546	35777	Indiana	2e86d5a1	United States	f4aa12bb	2e86d5a1
d80e71c8	CountyAdminArea	12588273	Adams County, Iowa	Adams_County,_Iowa	-94.69948	41.02915	3602	Iowa	12a2001f	United States	f4aa12bb	12a2001f
a6a1879a	CountyAdminArea	12588884	Adams County, Mississippi	Adams_County,_Mississippi	-91.40195	31.47064	30693	Mississippi	264d2a09	United States	f4aa12bb	264d2a09
e77d98db	CountyAdminArea	12589138	Adams County, Nebraska	Adams_County,_Nebraska	-98.50094	40.5245	31363	Nebraska	99e8e943	United States	f4aa12bb	99e8e943
afa3cdeb	CountyAdminArea	12589474	Adams County, North Dakota	Adams_County,_North_Dakota	-102.49687	46.11381	2216	North Dakota	ba23d922	United States	f4aa12bb	ba23d922
ad1cbe53	CountyAdminArea	12589527	Adams County, Ohio	Adams_County,_Ohio	-83.4866	38.82597	27698	Ohio	d74c75f2	United States	f4aa12bb	d74c75f2
77a7c3a0	CountyAdminArea	12589728	Adams County, Pennsylvania	Adams_County,_Pennsylvania	-77.21347	39.89482	103009	Pennsylvania	08e34ff1	United States	f4aa12bb	08e34ff1
e0dde52d	CountyAdminArea	12590440	Adams County, Washington	Adams_County,_Washington	-118.66444	46.99769	19983	Washington	4211c98d	United States	f4aa12bb	4211c98d
3643edc9	CountyAdminArea	12590534	Adams County, Wisconsin	Adams_County,_Wisconsin	-89.81296	43.94518	20220	Wisconsin	a5a6fe10	United States	f4aa12bb	a5a6fe10
1bdd90f4	CountyAdminArea	12590290	Addison County, Vermont	Addison_County,_Vermont	-73.08976	44.02863	36777	Vermont	351cf73c	United States	f4aa12bb	351cf73c
b68da6b9	Country	23424739	Afghanistan	Afghanistan	67.67894	33.93045	37172386					1713c6c2
31401fed	CountyAdminArea	12589801	Aiken County, South Carolina	Aiken_County,_South_Carolina	-81.59958	33.53742	170872	South Carolina	540d0a4b	United States	f4aa12bb	540d0a4b
a25ee035	CountyAdminArea	12588797	Aitkin County, Minnesota	Aitkin_County,_Minnesota	-93.4329	46.59217	15886	Minnesota	11f1fa88	United States	f4aa12bb	11f1fa88
ffba01d8	StateAdminArea	2347559	Alabama	Alabama	-86.83158	32.78488	4903185			United States	f4aa12bb	f4aa12bb
f17150e0	CountyAdminArea	12587803	Alachua County, Florida	Alachua_County,_Florida	-82.35396	29.68115	269043	Florida	ac78ae1d	United States	f4aa12bb	ac78ae1d
63a49dd0	StateAdminArea	2344845	Alagoas	Alagoas	-36.6938	-9.65535	3120494			Brazil	618cd974	618cd974
5ad00856	CountyAdminArea	12589374	Alamance County, North Carolina	Alamance_County,_North_Carolina	-79.38954	36.04665	169509	North Carolina	2a863897	United States	f4aa12bb	2a863897
f018a4e1	CountyAdminArea	12587670	Alameda County, California	Alameda_County,_California	-121.90585	37.6797	1671329	California	2902c400	United States	f4aa12bb	2902c400
b44fe8fa	CountyAdminArea	12587729	Alamosa County, Colorado	Alamosa_County,_Colorado	-105.74602	37.5542	16233	Colorado	dd0a216b	United States	f4aa12bb	dd0a216b
b73c0248	StateAdminArea	2347560	Alaska	Alaska	-149.106	63.0365	731545			United States	f4aa12bb	f4aa12bb
2f6bda35	Country	23424742	Albania	Albania	20.17001	41.15265	2866376					1713c6c2
e4858985	CountyAdminArea	12589312	Albany County, New York	Albany_County,_New_York	-73.97103	42.61467	305506	New York (state)	f7a12080	United States	f4aa12bb	f7a12080
d2096c78	CountyAdminArea	12590606	Albany County, Wyoming	Albany_County,_Wyoming	-105.79748	41.71486	38880	Wyoming	fa783aae	United States	f4aa12bb	fa783aae
d90f9aba	CountyAdminArea	12590305	Albemarle County, Virginia	Albemarle_County,_Virginia	-78.52358	38.00034	109330	Virginia	b8fc73b9	United States	f4aa12bb	b8fc73b9
83a41259	CityTown|CountyAdminArea	735558	Albergaria-a-Velha	Albergaria-a-Velha	-8.47944	40.69287	24146			Portugal	a2222b56	a2222b56
a1904013	StateAdminArea	2344915	Alberta	Alberta	-114.99993	54.49857	4067175			Canada	91a4263f	91a4263f
4c6eca91	CityTown		Albufeira	Albufeira	-8.245833	37.08972						
d693268d	CityTown|CountyAdminArea	735581	Alcanena	Alcanena	-8.66722	39.45927	14334	Santarém, Portugal	9f5562f7	Portugal	a2222b56	9f5562f7
1810242f	CityTown|CountyAdminArea	735621	Alcochete	Alcochete	-8.96055	38.75285	10120	Setúbal	5bd8731f	Portugal	a2222b56	5bd8731f
2d588659	CountyAdminArea	12588714	Alcona County, Michigan	Alcona_County,_Michigan	-83.57952	44.68418	10405	Michigan	12ff3a85	United States	f4aa12bb	12ff3a85
c689dbab	CountyAdminArea	12588885	Alcorn County, Mississippi	Alcorn_County,_Mississippi	-88.59359	34.87593	36953	Mississippi	264d2a09	United States	f4aa12bb	264d2a09
f644ff89	CityTown|CountyAdminArea	735810	Alenquer, Portugal	Alenquer,_Portugal	-9.01035	39.05531	34219			Portugal	a2222b56	a2222b56
7344235b	CountyAdminArea	12587554	Aleutians East Borough, Alaska	Aleutians_East_Borough,_Alaska	-162.4062	55.19313	3337	Alaska	b73c0248	United States	f4aa12bb	b73c0248
de24a9fb	CountyAdminArea	12587555	Aleutians West Census Area, Alaska	Aleutians_West_Census_Area,_Alaska	-167.031	53.6252	5634	Alaska	b73c0248	United States	f4aa12bb	b73c0248
f898a03e	CountyAdminArea	12588079	Alexander County, Illinois	Alexander_County,_Illinois	-89.32691	37.15286	5761	Illinois	33204009	United States	f4aa12bb	33204009
b36c6c36	CountyAdminArea	12589375	Alexander County, North Carolina	Alexander_County,_North_Carolina	-81.17377	35.91243	37497	North Carolina	2a863897	United States	f4aa12bb	2a863897
ede79b9f	CityTown|CountyAdminArea	12590306	Alexandria, Virginia	Alexandria,_Virginia	-77.09015	38.81841	159428	Virginia	b8fc73b9	United States	f4aa12bb	b8fc73b9
3be3ee21	CountyAdminArea	12589616	Alfalfa County, Oklahoma	Alfalfa_County,_Oklahoma	-98.32459	36.731	5702	Oklahoma	ca8120a2	United States	f4aa12bb	ca8120a2
c2160e3d	CountyAdminArea	12588715	Alger County, Michigan	Alger_County,_Michigan	-86.49035	46.42458	9108	Michigan	12ff3a85	United States	f4aa12bb	12ff3a85
cecc1f67	Country	23424740	Algeria	Algeria	1.65284	28.02688	42228429					1713c6c2
e384ad25	CountyAdminArea	12588274	Allamakee County, Iowa	Allamakee_County,_Iowa	-91.33435	43.29046	13687	Iowa	12a2001f	United States	f4aa12bb	12a2001f
0d67f0d1	CountyAdminArea	12588716	Allegan County, Michigan	Allegan_County,_Michigan	-85.90841	42.59387	118081	Michigan	12ff3a85	United States	f4aa12bb	12ff3a85
35039e43	CountyAdminArea	12588676	Allegany County, Maryland	Allegany_County,_Maryland	-78.69003	39.58089	70416	Maryland	9a2d1dc0	United States	f4aa12bb	9a2d1dc0
9350652c	CountyAdminArea	12589313	Allegany County, New York	Allegany_County,_New_York	-78.01634	42.25997	46091	New York (state)	f7a12080	United States	f4aa12bb	f7a12080
02b9ceee	CountyAdminArea	12589376	Alleghany County, North Carolina	Alleghany_County,_North_Carolina	-81.12743	36.47046	11137	North Carolina	2a863897	United States	f4aa12bb	2a863897
50d4bedb	CountyAdminArea	12590307	Alleghany County, Virginia	Alleghany_County,_Virginia	-79.95635	37.77996	14860	Virginia	b8fc73b9	United States	f4aa12bb	b8fc73b9
64ac3a1a	CountyAdminArea	12589729	Allegheny County, Pennsylvania	Allegheny_County,_Pennsylvania	-80.02488	40.43444	1216045	Pennsylvania	08e34ff1	United States	f4aa12bb	08e34ff1
1c57cb26	CountyAdminArea	12588181	Allen County, Indiana	Allen_County,_Indiana	-85.07063	41.09369	379299	Indiana	2e86d5a1	United States	f4aa12bb	2e86d5a1
83b79d1f	CountyAdminArea	12588371	Allen County, Kansas	Allen_County,_Kansas	-95.3017	37.8855	12369	Kansas	2d125485	United States	f4aa12bb	2d125485
e92ebe94	CountyAdminArea	12588477	Allen County, Kentucky	Allen_County,_Kentucky	-86.18398	36.78211	21315	Kentucky	c32ba685	United States	f4aa12bb	c32ba685
0371a58f	CountyAdminArea	12589528	Allen County, Ohio	Allen_County,_Ohio	-84.13861	40.78175	102351	Ohio	d74c75f2	United States	f4aa12bb	d74c75f2
b5f0c9a5	CountyAdminArea	12588597	Allen Parish, Louisiana	Allen_Parish,_Louisiana	-92.85709	30.66124	25627	Louisiana	d8434284	United States	f4aa12bb	d8434284
a9cf5d6a	CountyAdminArea	12589802	Allendale County, South Carolina	Allendale_County,_South_Carolina	-81.34794	32.95154	8688	South Carolina	540d0a4b	United States	f4aa12bb	540d0a4b
6106a521	CityTown|CountyAdminArea		Almada	Almada	-9.158333	38.68028						
b3ffd24b	CityTown	735915	Almeida, Portugal	Almeida,_Portugal	-6.90559	40.72465	10021			Portugal	a2222b56	a2222b56
0b36c4fd	CityTown|CountyAdminArea	735921	Almeirim	Almeirim	-8.63049	39.20943	21307	Santarém, Portugal	9f5562f7	Portugal	a2222b56	9f5562f7
a22431e8	CountyAdminArea	12588717	Alpena County, Michigan	Alpena_County,_Michigan	-83.57528	45.03184	28405	Michigan	12ff3a85	United States	f4aa12bb	12ff3a85
b42623c8	CountyAdminArea	12587671	Alpine County, California	Alpine_County,_California	-119.80731	38.63066	1129	California	2902c400	United States	f4aa12bb	2902c400
ee448a31	CountyAdminArea	12587672	Amador County, California	Amador_County,_California	-120.55011	38.4617	39752	California	2902c400	United States	f4aa12bb	2902c400
68386789	CityTown|CountyAdminArea	736078	Amadora	Amadora	-9.23785	38.75931	182673			Portugal	a2222b56	a2222b56
9177145c	CityTown|CountyAdminArea	736080	Amarante, Portugal	Amarante,_Portugal	-8.08063	41.27308	55475			Portugal	a2222b56	a2222b56
a034d5e7	CityTown|CountyAdminArea	736085	Amares	Amares	-8.34939	41.63051	16627			Portugal	a2222b56	a2222b56
b303a231	StateAdminArea	2344847	Amazonas (Brazilian state)	Amazonas_(Brazilian_state)	-64.94689	-3.79107	3483985			Brazil	618cd974	618cd974
14acdbb0	CountyAdminArea	12590308	Amelia County, Virginia	Amelia_County,_Virginia	-77.9497	37.34515	13145	Virginia	b8fc73b9	United States	f4aa12bb	b8fc73b9
e1b4d3eb	StateAdminArea	23424746	American Samoa	American_Samoa	-170.70238	-14.30996	55465			United States	f4aa12bb	f4aa12bb
a85c3f19	CountyAdminArea	12590309	Amherst County, Virginia	Amherst_County,_Virginia	-79.15286	37.6009	31605	Virginia	b8fc73b9	United States	f4aa12bb	b8fc73b9
d9446149	CountyAdminArea	12588886	Amite County, Mississippi	Amite_County,_Mississippi	-90.82151	31.17437	12297	Mississippi	264d2a09	United States	f4aa12bb	264d2a09
27ed841d	CityTown|CountyAdminArea	736189	Anadia, Portugal	Anadia,_Portugal	-8.43452	40.44099	28952			Portugal	a2222b56	a2222b56
b873dad2	CityTown|CountyAdminArea	2354490	Anchorage, Alaska	Anchorage,_Alaska	-149.4403	61.14348	288000	Alaska	b73c0248	United States	f4aa12bb	b73c0248
39fbf31b	StateAdminArea	12578029	Andalusia	Andalusia	-4.57493	37.36478	8388107			Spain	3e596022	3e596022
7e04d621	StateAdminArea	2345739	Andaman and Nicobar Islands	Andaman_and_Nicobar_Islands	92.82391	12.62794	380520			India	beea9395	beea9395
5a54aa59	CountyAdminArea	12588372	Anderson County, Kansas	Anderson_County,_Kansas	-95.29194	38.21401	7858	Kansas	2d125485	United States	f4aa12bb	2d125485
b5bce453	CountyAdminArea	12588478	Anderson County, Kentucky	Anderson_County,_Kentucky	-84.98307	38.00691	22747	Kentucky	c32ba685	United States	f4aa12bb	c32ba685
ac17bb58	CountyAdminArea	12589803	Anderson County, South Carolina	Anderson_County,_South_Carolina	-82.65263	34.51396	202558	South Carolina	540d0a4b	United States	f4aa12bb	540d0a4b
b39b0793	CountyAdminArea	12589912	Anderson County, Tennessee	Anderson_County,_Tennessee	-84.1959	36.10551	76978	Tennessee	487c4d03	United States	f4aa12bb	487c4d03
80360eb3	CountyAdminArea	12590007	Anderson County, Texas	Anderson_County,_Texas	-95.66181	31.79403	57735	Texas	0722e674	United States	f4aa12bb	0722e674
ea12646e	StateAdminArea	2345740	Andhra Pradesh	Andhra_Pradesh	80.7636	16.271	75727541			India	beea9395	beea9395
02c7550e	Country	23424744	Andorra	Andorra	1.60021	42.54237	77006					1713c6c2
265c6149	CountyAdminArea	12588967	Andrew County, Missouri	Andrew_County,_Missouri	-94.83173	39.97486	17712	Missouri	2fa59461	United States	f4aa12bb	2fa59461
75078615	CountyAdminArea	12590008	Andrews County, Texas	Andrews_County,_Texas	-102.63785	32.30499	18705	Texas	0722e674	United States	f4aa12bb	0722e674
bdc8b861	CountyAdminArea	12588660	Androscoggin County, Maine	Androscoggin_County,_Maine	-70.23958	44.19707	108277	Maine	57253146	United States	f4aa12bb	57253146
4b1bcb6e	CountyAdminArea	12590009	Angelina County, Texas	Angelina_County,_Texas	-94.56762	31.27649	86715	Texas	0722e674	United States	f4aa12bb	0722e674
4795fbaf	Country	23424745	Angola	Angola	17.90721	-11.94184	30809762					1713c6c2
e2845aac	Country|Island	23424751	Anguilla	Anguilla	-63.07213	18.22512	18090					1713c6c2
70c674df	CountyAdminArea	12588677	Anne Arundel County, Maryland	Anne_Arundel_County,_Maryland	-76.63451	38.88823	579234	Maryland	9a2d1dc0	United States	f4aa12bb	9a2d1dc0
d155d2b5	CountyAdminArea	12588798	Anoka County, Minnesota	Anoka_County,_Minnesota	-93.26563	45.22501	356921	Minnesota	11f1fa88	United States	f4aa12bb	11f1fa88
cbe088aa	CountyAdminArea	12589377	Anson County, North Carolina	Anson_County,_North_Carolina	-80.08448	35.00893	24446	North Carolina	2a863897	United States	f4aa12bb	2a863897
305cfa80	CountyAdminArea	12589139	Antelope County, Nebraska	Antelope_County,_Nebraska	-98.067	42.17632	6298	Nebraska	99e8e943	United States	f4aa12bb	99e8e943
25c3e15d	Country	23424737	Antigua and Barbuda	Antigua_and_Barbuda	-61.78942	17.08602	96286					1713c6c2
51db517f	CityTown	349862	Antofagasta	Antofagasta	-70.39276	-23.63125	228408	Antofagasta Region	bd01622f	Chile	56d89b84	bd01622f
bd01622f	StateAdminArea	2345020	Antofagasta Region	Antofagasta_Region	-68.86211	-23.50917	599335			Chile	56d89b84	56d89b84
4d99e95d	CountyAdminArea	12588718	Antrim County, Michigan	Antrim_County,_Michigan	-85.14545	45.01042	23324	Michigan	12ff3a85	United States	f4aa12bb	12ff3a85
20fc9474	StateAdminArea	7153348	Aosta Valley	Aosta_Valley	7.37038	45.7275	126933			Italy	09edd772	09edd772
29697497	CountyAdminArea	12587580	Apache County, Arizona	Apache_County,_Arizona	-109.52289	35.23746	71887	Arizona	69f80530	United States	f4aa12bb	69f80530
53370ed8	CountyAdminArea	12588275	Appanoose County, Iowa	Appanoose_County,_Iowa	-92.86777	40.74138	12426	Iowa	12a2001f	United States	f4aa12bb	12a2001f
b511133c	CountyAdminArea	12587870	Appling County, Georgia	Appling_County,_Georgia	-82.2992	31.71765	18386	Georgia	713f340f	United States	f4aa12bb	713f340f
3c649f7d	CountyAdminArea	12590310	Appomattox County, Virginia	Appomattox_County,_Virginia	-78.86704	37.37723	15911	Virginia	b8fc73b9	United States	f4aa12bb	b8fc73b9
ccb8daad	StateAdminArea	7153342	Apulia	Apulia	16.727	40.8699	4063888			Italy	09edd772	09edd772
6423cced	CityTown|StateAdminArea	12578030	Aragon	Aragon	-0.7017	41.38597	1308563			Spain	3e596022	3e596022
7e90468e	CountyAdminArea	12590010	Aransas County, Texas	Aransas_County,_Texas	-97.02557	28.11013	23510	Texas	0722e674	United States	f4aa12bb	0722e674
1e81bce8	CountyAdminArea	12587730	Arapahoe County, Colorado	Arapahoe_County,_Colorado	-104.3817	39.6521	656590	Colorado	dd0a216b	United States	f4aa12bb	dd0a216b
5423cabe	StateAdminArea	2345021	Araucanía Region	Araucan%C3%ADa_Region	-72.17557	-38.60331	938626			Chile	56d89b84	56d89b84
d3d9f403	CountyAdminArea	12590011	Archer County, Texas	Archer_County,_Texas	-98.68741	33.61566	8553	Texas	0722e674	United States	f4aa12bb	0722e674
74b1fdea	CountyAdminArea	12587731	Archuleta County, Colorado	Archuleta_County,_Colorado	-106.97961	37.20771	14029	Colorado	dd0a216b	United States	f4aa12bb	dd0a216b
57064d36	CityTown	736309	Arcos de Valdevez	Arcos_de_Valdevez	-8.41656	41.84746	26345			Portugal	a2222b56	a2222b56
ffa7dfb1	CountyAdminArea	12588719	Arenac County, Michigan	Arenac_County,_Michigan	-83.86536	44.03699	14883	Michigan	12ff3a85	United States	f4aa12bb	12ff3a85
c1a63a71	CityTown|CountyAdminArea	736375	Arganil	Arganil	-8.05363	40.21924	13878			Portugal	a2222b56	Coimbra_District
34da8961	Country	23424747	Argentina	Argentina	-63.5848	-37.0907	44494502					1713c6c2
9593eb68	StateAdminArea	56043702	Arica y Parinacota Region	Arica_y_Parinacota_Region	-69.6417	-18.36454	428594			Chile	56d89b84	56d89b84
69f80530	StateAdminArea	2347561	Arizona	Arizona	-111.66473	34.29302	7278717			United States	f4aa12bb	f4aa12bb
23c77423	StateAdminArea	2347562	Arkansas	Arkansas	-92.43864	34.89978	3017804			United States	f4aa12bb	f4aa12bb
da8448ae	CountyAdminArea	12587595	Arkansas County, Arkansas	Arkansas_County,_Arkansas	-91.38188	34.24459	17486	Arkansas	23c77423	United States	f4aa12bb	23c77423
8ad85015	CityTown|CountyAdminArea	12590311	Arlington County, Virginia	Arlington_County,_Virginia	-77.10219	38.88091	236842	Virginia	b8fc73b9	United States	f4aa12bb	b8fc73b9
6ce49012	Country	23424743	Armenia	Armenia	45.03989	40.06617	2951776					1713c6c2
309e0972	CountyAdminArea	12589730	Armstrong County, Pennsylvania	Armstrong_County,_Pennsylvania	-79.45153	40.84766	64735	Pennsylvania	08e34ff1	United States	f4aa12bb	08e34ff1
4ad15154	CountyAdminArea	12590012	Armstrong County, Texas	Armstrong_County,_Texas	-101.35765	34.96575	1887	Texas	0722e674	United States	f4aa12bb	0722e674
00a4403b	CountyAdminArea	12588661	Aroostook County, Maine	Aroostook_County,_Maine	-68.30376	46.51636	67055	Maine	57253146	United States	f4aa12bb	57253146
87a3840f	CityTown|CountyAdminArea	736470	Arouca, Portugal	Arouca,_Portugal	-8.24584	40.92858	23923			Portugal	a2222b56	a2222b56
53a901f9	CityTown	736538	Arruda dos Vinhos	Arruda_dos_Vinhos	-9.0791	38.98002	9577			Portugal	a2222b56	a2222b56
ad99992a	CountyAdminArea	12589140	Arthur County, Nebraska	Arthur_County,_Nebraska	-101.69586	41.56905	463	Nebraska	99e8e943	United States	f4aa12bb	99e8e943
26a875c1	Country|Island	23424736	Aruba	Aruba	-69.96399	12.51835	105845					1713c6c2
8778e941	StateAdminArea	2345763	Arunachal Pradesh	Arunachal_Pradesh	94.48517	28.04432	1382611			India	beea9395	beea9395
ca97bda6	CountyAdminArea	12588598	Ascension Parish, Louisiana	Ascension_Parish,_Louisiana	-90.85031	30.2048	126604	Louisiana	d8434284	United States	f4aa12bb	d8434284
f90b7eab	CountyAdminArea	12589378	Ashe County, North Carolina	Ashe_County,_North_Carolina	-81.49292	36.4143	27203	North Carolina	2a863897	United States	f4aa12bb	2a863897
0e741e0a	CountyAdminArea	12589529	Ashland County, Ohio	Ashland_County,_Ohio	-82.28093	40.81027	53484	Ohio	d74c75f2	United States	f4aa12bb	d74c75f2
2918b687	CountyAdminArea	12590535	Ashland County, Wisconsin	Ashland_County,_Wisconsin	-90.61379	46.34384	15562	Wisconsin	a5a6fe10	United States	f4aa12bb	a5a6fe10
80d79229	CountyAdminArea	12587596	Ashley County, Arkansas	Ashley_County,_Arkansas	-91.80056	33.2023	19657	Arkansas	23c77423	United States	f4aa12bb	23c77423
87a190e6	CountyAdminArea	12589530	Ashtabula County, Ohio	Ashtabula_County,_Ohio	-80.76123	41.7379	97241	Ohio	d74c75f2	United States	f4aa12bb	d74c75f2
044bdaf8	CountyAdminArea	12590441	Asotin County, Washington	Asotin_County,_Washington	-117.1981	46.22904	22582	Washington	4211c98d	United States	f4aa12bb	4211c98d
dd68b46e	StateAdminArea	2345741	Assam	Assam	92.85448	26.05573	31169272			India	beea9395	beea9395
37a14513	CountyAdminArea	12588599	Assumption Parish, Louisiana	Assumption_Parish,_Louisiana	-91.07265	29.85366	21891	Louisiana	d8434284	United States	f4aa12bb	d8434284
13867d33	CountyAdminArea|StateAdminArea	23388417	Asturias	Asturias	-5.84598	43.27089	1062998			Spain	3e596022	3e596022
abc66e3c	StateAdminArea	2345022	Atacama Region	Atacama_Region	-69.90121	-27.40483	300000			Chile	56d89b84	56d89b84
438ae5d3	CountyAdminArea	12590013	Atascosa County, Texas	Atascosa_County,_Texas	-98.45173	28.93164	51153	Texas	0722e674	United States	f4aa12bb	0722e674
60a8ea81	CountyAdminArea	12588373	Atchison County, Kansas	Atchison_County,_Kansas	-95.26955	39.53578	16073	Kansas	2d125485	United States	f4aa12bb	2d125485
714ade71	CountyAdminArea	12588968	Atchison County, Missouri	Atchison_County,_Missouri	-95.47592	40.42357	5143	Missouri	2fa59461	United States	f4aa12bb	2fa59461
f4e5110a	CountyAdminArea	12589531	Athens County, Ohio	Athens_County,_Ohio	-82.01009	39.36835	65327	Ohio	d74c75f2	United States	f4aa12bb	d74c75f2
54cd65ac	CountyAdminArea	12587871	Atkinson County, Georgia	Atkinson_County,_Georgia	-82.88521	31.30174	8165	Georgia	713f340f	United States	f4aa12bb	713f340f
3ab6dfda	CountyAdminArea	12589258	Atlantic County, New Jersey	Atlantic_County,_New_Jersey	-74.68127	39.50927	263670	New Jersey	8fdbe72c	United States	f4aa12bb	8fdbe72c
c04a76b4	CountyAdminArea	12589617	Atoka County, Oklahoma	Atoka_County,_Oklahoma	-96.03964	34.41855	13758	Oklahoma	ca8120a2	United States	f4aa12bb	ca8120a2
55cc1111	CountyAdminArea	12588887	Attala County, Mississippi	Attala_County,_Mississippi	-89.64168	33.08279	18174	Mississippi	264d2a09	United States	f4aa12bb	264d2a09
eb21fab2	CountyAdminArea	12588969	Audrain County, Missouri	Audrain_County,_Missouri	-91.86159	39.20361	25388	Missouri	2fa59461	United States	f4aa12bb	2fa59461
9a634509	CountyAdminArea	12588276	Audubon County, Iowa	Audubon_County,_Iowa	-94.89696	41.68377	5496	Iowa	12a2001f	United States	f4aa12bb	12a2001f
168317c5	CountyAdminArea	12589532	Auglaize County, Ohio	Auglaize_County,_Ohio	-84.16799	40.52033	45656	Ohio	d74c75f2	United States	f4aa12bb	d74c75f2
da2d67b8	CountyAdminArea	12590312	Augusta County, Virginia	Augusta_County,_Virginia	-79.14107	38.1798	75558	Virginia	b8fc73b9	United States	f4aa12bb	b8fc73b9
5d1a6500	CountyAdminArea	12589846	Aurora County, South Dakota	Aurora_County,_South_Dakota	-98.56413	43.71814	2751	South Dakota	d3a484f3	United States	f4aa12bb	d3a484f3
930dab5f	CountyAdminArea	12590014	Austin County, Texas	Austin_County,_Texas	-96.31314	29.84934	30032	Texas	0722e674	United States	f4aa12bb	0722e674
8a7ed673	Country	23424748	Australia	Australia	133.398	-24.9121	24982688					1713c6c2
43e64f0c	StateAdminArea	2344699	Australian Capital Territory	Australian_Capital_Territory	149.0025	-35.48879	428060			Australia	8a7ed673	8a7ed673
a4da20c4	Country	23424750	Austria	Austria	13.34577	47.69651	8840521					1713c6c2
7a903b4b	CountyAdminArea	12587487	Autauga County, Alabama	Autauga_County,_Alabama	-86.66611	32.50771	55869	Alabama	ffba01d8	United States	f4aa12bb	ffba01d8
c174e903	StateAdminArea		Autonomous Province of Kosovo and Metohija	Autonomous_Province_of_Kosovo_and_Metohija	21.166668	42.666668	1780021			Serbia	b2cd7264	b2cd7264
50246b0c	CityTown		Aveiro, Portugal	Aveiro,_Portugal	-8.65	40.63333						
2b206d9a	CountyAdminArea	12589379	Avery County, North Carolina	Avery_County,_North_Carolina	-81.90831	36.09929	17557	North Carolina	2a863897	United States	f4aa12bb	2a863897
23fe4a45	CountyAdminArea	12588600	Avoyelles Parish, Louisiana	Avoyelles_Parish,_Louisiana	-91.97911	31.09626	40144	Louisiana	d8434284	United States	f4aa12bb	d8434284
575a0a70	StateAdminArea		Aysén Region	Ays%C3%A9n_Region	-72.06611	-43.57	102317			Chile	56d89b84	56d89b84
cc4bbe71	CityTown	736688	Azambuja	Azambuja	-8.87133	39.06813	19557			Portugal	a2222b56	a2222b56
071f1013	Country	23424741	Azerbaijan	Azerbaijan	47.68707	40.15134	9939800					1713c6c2
19e51806	CountyAdminArea	12587732	Baca County, Colorado	Baca_County,_Colorado	-102.56451	37.31864	3581	Colorado	dd0a216b	United States	f4aa12bb	dd0a216b
20ed9f15	CountyAdminArea	12587872	Bacon County, Georgia	Bacon_County,_Georgia	-82.42746	31.56383	11164	Georgia	713f340f	United States	f4aa12bb	713f340f
dfb3ad0b	StateAdminArea	2345481	Baden-Württemberg	Baden-W%C3%BCrttemberg	9.0036	48.66181	11023424			Germany	e9f374b9	e9f374b9
2e5eafe4	StateAdminArea	2344848	Bahia	Bahia	-41.9952	-13.442	14016906			Brazil	618cd974	618cd974
d5e18e0f	Country|Island	23424753	Bahrain	Bahrain	50.5485	26.02475	1569439					1713c6c2
4f45d522	CountyAdminArea	12590015	Bailey County, Texas	Bailey_County,_Texas	-102.83122	34.06873	7000	Texas	0722e674	United States	f4aa12bb	0722e674
5a896d58	CountyAdminArea	12587804	Baker County, Florida	Baker_County,_Florida	-82.25433	30.36026	29210	Florida	ac78ae1d	United States	f4aa12bb	ac78ae1d
848a4d45	CountyAdminArea	12587873	Baker County, Georgia	Baker_County,_Georgia	-84.39105	31.26369	3038	Georgia	713f340f	United States	f4aa12bb	713f340f
1b3283c8	CountyAdminArea	12589692	Baker County, Oregon	Baker_County,_Oregon	-117.65106	44.66808	16124	Oregon	e6c9dd69	United States	f4aa12bb	e6c9dd69
cded40c1	CountyAdminArea	12587488	Baldwin County, Alabama	Baldwin_County,_Alabama	-87.70876	30.7698	223234	Alabama	ffba01d8	United States	f4aa12bb	ffba01d8
4bddbd29	CountyAdminArea	12587874	Baldwin County, Georgia	Baldwin_County,_Georgia	-83.23848	33.05843	44890	Georgia	713f340f	United States	f4aa12bb	713f340f
278a5bda	CountyAdminArea|StateAdminArea	12602088	Balearic Islands	Balearic_Islands	2.91156	39.61353	841669			Spain	3e596022	3e596022
1d176b08	CountyAdminArea	12588479	Ballard County, Kentucky	Ballard_County,_Kentucky	-88.9992	37.07273	7888	Kentucky	c32ba685	United States	f4aa12bb	c32ba685
33a86d54	CityTown|CountyAdminArea	12588679	Baltimore	Baltimore	-76.62022	39.30479	593490	Maryland	9a2d1dc0	United States	f4aa12bb	9a2d1dc0
e21fad7e	CountyAdminArea	12588678	Baltimore County, Maryland	Baltimore_County,_Maryland	-76.6136	39.45827	827370	Maryland	9a2d1dc0	United States	f4aa12bb	9a2d1dc0
2c1baf90	CountyAdminArea	12589804	Bamberg County, South Carolina	Bamberg_County,_South_Carolina	-81.01293	33.23277	14066	South Carolina	540d0a4b	United States	f4aa12bb	540d0a4b
057625a9	CountyAdminArea	12590016	Bandera County, Texas	Bandera_County,_Texas	-99.19119	29.72963	23112	Texas	0722e674	United States	f4aa12bb	0722e674
6b8e11b0	Country	23424759	Bangladesh	Bangladesh	90.3509	23.68745	161356039					1713c6c2
d85e0afb	CountyAdminArea	12587875	Banks County, Georgia	Banks_County,_Georgia	-83.50365	34.34463	19234	Georgia	713f340f	United States	f4aa12bb	713f340f
8f561863	CountyAdminArea	12589141	Banner County, Nebraska	Banner_County,_Nebraska	-103.71006	41.54641	745	Nebraska	99e8e943	United States	f4aa12bb	99e8e943
afa8f0b7	CountyAdminArea	12588036	Bannock County, Idaho	Bannock_County,_Idaho	-112.31388	42.6394	87808	Idaho	342f5b41	United States	f4aa12bb	342f5b41
4804f4e1	CountyAdminArea	12588720	Baraga County, Michigan	Baraga_County,_Michigan	-88.33535	46.69334	8209	Michigan	12ff3a85	United States	f4aa12bb	12ff3a85
983f3b99	Country|Island	23424754	Barbados	Barbados	-59.53465	13.18355	286641					1713c6c2
7a174ca6	CountyAdminArea	12588374	Barber County, Kansas	Barber_County,_Kansas	-98.67986	37.23458	4427	Kansas	2d125485	United States	f4aa12bb	2d125485
a08327ad	CountyAdminArea	12587489	Barbour County, Alabama	Barbour_County,_Alabama	-85.39843	31.88278	24686	Alabama	ffba01d8	United States	f4aa12bb	ffba01d8
e381aee9	CountyAdminArea	12590479	Barbour County, West Virginia	Barbour_County,_West_Virginia	-80.01793	39.12521	16441	West Virginia	b0ff8d4f	United States	f4aa12bb	b0ff8d4f
ebbf2812	CityTown		Barcelos, Portugal	Barcelos,_Portugal	-8.616667	41.516666						
ef3cc28f	CountyAdminArea	12589475	Barnes County, North Dakota	Barnes_County,_North_Dakota	-98.07452	46.9356	10415	North Dakota	ba23d922	United States	f4aa12bb	ba23d922
879c2aab	CountyAdminArea	12588700	Barnstable County, Massachusetts	Barnstable_County,_Massachusetts	-69.97465	41.79861	212990	Massachusetts	b31300a2	United States	f4aa12bb	b31300a2
b195306f	CountyAdminArea	12589805	Barnwell County, South Carolina	Barnwell_County,_South_Carolina	-81.48269	33.29176	20866	South Carolina	540d0a4b	United States	f4aa12bb	540d0a4b
f9dcb43d	CityTown	737014	Barreiro, Portugal	Barreiro,_Portugal	-9.07742	38.66136	86346	Setúbal	5bd8731f	Portugal	a2222b56	5bd8731f
1b9cd672	CountyAdminArea	12588480	Barren County, Kentucky	Barren_County,_Kentucky	-85.95783	36.94626	44249	Kentucky	c32ba685	United States	f4aa12bb	c32ba685
54686d98	CountyAdminArea	12590536	Barron County, Wisconsin	Barron_County,_Wisconsin	-91.84818	45.42336	45244	Wisconsin	a5a6fe10	United States	f4aa12bb	a5a6fe10
abe096e7	CountyAdminArea	12587876	Barrow County, Georgia	Barrow_County,_Georgia	-83.70319	34.01122	83240	Georgia	713f340f	United States	f4aa12bb	713f340f
2c37a8f3	CountyAdminArea	12588721	Barry County, Michigan	Barry_County,_Michigan	-85.30853	42.59522	61550	Michigan	12ff3a85	United States	f4aa12bb	12ff3a85
61c25ef7	CountyAdminArea	12588970	Barry County, Missouri	Barry_County,_Missouri	-93.82554	36.71517	35789	Missouri	2fa59461	United States	f4aa12bb	2fa59461
2731a36f	CountyAdminArea	12588182	Bartholomew County, Indiana	Bartholomew_County,_Indiana	-85.88509	39.193	83779	Indiana	2e86d5a1	United States	f4aa12bb	2e86d5a1
87d9750d	CountyAdminArea	12588375	Barton County, Kansas	Barton_County,_Kansas	-98.75645	38.47885	25779	Kansas	2d125485	United States	f4aa12bb	2d125485
2abf58b1	CountyAdminArea	12588971	Barton County, Missouri	Barton_County,_Missouri	-94.34567	37.50142	11754	Missouri	2fa59461	United States	f4aa12bb	2fa59461
68b0a872	CountyAdminArea	12587877	Bartow County, Georgia	Bartow_County,_Georgia	-84.84587	34.24408	107738	Georgia	713f340f	United States	f4aa12bb	713f340f
e3c4194d	StateAdminArea	7153331	Basilicata	Basilicata	16.102	40.5168	595727			Italy	09edd772	09edd772
cbfae498	StateAdminArea	12578037	Basque Country (autonomous community)	Basque_Country_(autonomous_community)	-2.58927	42.96392	2189534			Spain	3e596022	3e596022
74952e8d	CountyAdminArea	12590017	Bastrop County, Texas	Bastrop_County,_Texas	-97.33665	30.10304	88723	Texas	0722e674	United States	f4aa12bb	0722e674
f7a2d29d	CityTown	737100	Batalha, Portugal	Batalha,_Portugal	-8.82439	39.65805	13280			Portugal	a2222b56	a2222b56
a5ce0868	CountyAdminArea	12588972	Bates County, Missouri	Bates_County,_Missouri	-94.33206	38.25172	16172	Missouri	2fa59461	United States	f4aa12bb	2fa59461
86f07a3b	CountyAdminArea	12588481	Bath County, Kentucky	Bath_County,_Kentucky	-83.72155	38.14762	12500	Kentucky	c32ba685	United States	f4aa12bb	c32ba685
7ab4f00f	CountyAdminArea	12590313	Bath County, Virginia	Bath_County,_Virginia	-79.74671	38.0523	4147	Virginia	b8fc73b9	United States	f4aa12bb	b8fc73b9
68cc1562	CityTown|StateAdminArea	2345482	Bavaria	Bavaria	11.40799	48.9172	13076721			Germany	e9f374b9	e9f374b9
572179bf	CountyAdminArea	12587597	Baxter County, Arkansas	Baxter_County,_Arkansas	-92.37291	36.23629	41932	Arkansas	23c77423	United States	f4aa12bb	23c77423
d3a4fb9b	CountyAdminArea	12587805	Bay County, Florida	Bay_County,_Florida	-85.69019	30.29818	174705	Florida	ac78ae1d	United States	f4aa12bb	ac78ae1d
7a89a4fa	CountyAdminArea	12588722	Bay County, Michigan	Bay_County,_Michigan	-84.0558	43.73833	103126	Michigan	12ff3a85	United States	f4aa12bb	12ff3a85
77610275	StateAdminArea	15021753	Bay of Plenty	Bay_of_Plenty	176.82452	-38.15894	277200			New Zealand	62c55b61	62c55b61
5f7d7f84	CountyAdminArea	12590537	Bayfield County, Wisconsin	Bayfield_County,_Wisconsin	-91.15248	46.55853	15036	Wisconsin	a5a6fe10	United States	f4aa12bb	a5a6fe10
2f89c5f4	CountyAdminArea	12590018	Baylor County, Texas	Baylor_County,_Texas	-99.21415	33.61581	3509	Texas	0722e674	United States	f4aa12bb	0722e674
fe8b7791	CountyAdminArea	12589847	Beadle County, South Dakota	Beadle_County,_South_Dakota	-98.27944	44.41438	18453	South Dakota	d3a484f3	United States	f4aa12bb	d3a484f3
f15ee56a	CountyAdminArea	12588037	Bear Lake County, Idaho	Bear_Lake_County,_Idaho	-111.34133	42.30143	6125	Idaho	342f5b41	United States	f4aa12bb	342f5b41
9a3f4b63	CountyAdminArea	12589380	Beaufort County, North Carolina	Beaufort_County,_North_Carolina	-76.83372	35.56365	46994	North Carolina	2a863897	United States	f4aa12bb	2a863897
73b6dd2f	CountyAdminArea	12589806	Beaufort County, South Carolina	Beaufort_County,_South_Carolina	-80.64768	32.47989	192122	South Carolina	540d0a4b	United States	f4aa12bb	540d0a4b
0957f015	CountyAdminArea	12588601	Beauregard Parish, Louisiana	Beauregard_Parish,_Louisiana	-93.35932	30.64296	37497	Louisiana	d8434284	United States	f4aa12bb	d8434284
388b2ef6	CountyAdminArea	12589618	Beaver County, Oklahoma	Beaver_County,_Oklahoma	-100.47833	36.75102	5311	Oklahoma	ca8120a2	United States	f4aa12bb	ca8120a2
9bbfc7b8	CountyAdminArea	12589731	Beaver County, Pennsylvania	Beaver_County,_Pennsylvania	-80.33185	40.66582	163929	Pennsylvania	08e34ff1	United States	f4aa12bb	08e34ff1
54b10a0c	CountyAdminArea	12590261	Beaver County, Utah	Beaver_County,_Utah	-113.19289	38.36073	6710	Utah	6c0dccb8	United States	f4aa12bb	6c0dccb8
4dd24ce0	CountyAdminArea	12589081	Beaverhead County, Montana	Beaverhead_County,_Montana	-112.7008	45.14945	9453	Montana	50f779e5	United States	f4aa12bb	50f779e5
11fbabf2	CountyAdminArea	12588799	Becker County, Minnesota	Becker_County,_Minnesota	-95.67833	46.93399	34423	Minnesota	11f1fa88	United States	f4aa12bb	11f1fa88
50eb01eb	CountyAdminArea	12589619	Beckham County, Oklahoma	Beckham_County,_Oklahoma	-99.68023	35.26933	21859	Oklahoma	ca8120a2	United States	f4aa12bb	ca8120a2
4cd74eff	CountyAdminArea	12589732	Bedford County, Pennsylvania	Bedford_County,_Pennsylvania	-78.47142	40.02472	47888	Pennsylvania	08e34ff1	United States	f4aa12bb	08e34ff1
8db63a05	CountyAdminArea	12589913	Bedford County, Tennessee	Bedford_County,_Tennessee	-86.45017	35.5108	49713	Tennessee	487c4d03	United States	f4aa12bb	487c4d03
c4434c32	CountyAdminArea	12590314	Bedford County, Virginia	Bedford_County,_Virginia	-79.5214	37.312	78997	Virginia	b8fc73b9	United States	f4aa12bb	b8fc73b9
1ef48a2c	CountyAdminArea	12590019	Bee County, Texas	Bee_County,_Texas	-97.73263	28.4245	32565	Texas	0722e674	United States	f4aa12bb	0722e674
4c5129bd	Country	23424765	Belarus	Belarus	27.97375	53.71105	9483499					1713c6c2
aac24493	Country	23424757	Belgium	Belgium	4.47684	50.50101	11433256					1713c6c2
212d7fbd	Country	23424760	Belize	Belize	-88.65284	17.19292	383071					1713c6c2
74849d8a	CountyAdminArea	12589248	Belknap County, New Hampshire	Belknap_County,_New_Hampshire	-71.44537	43.52286	61303	New Hampshire	f51b0193	United States	f4aa12bb	f51b0193
153a7437	CountyAdminArea	12588482	Bell County, Kentucky	Bell_County,_Kentucky	-83.7084	36.76908	26032	Kentucky	c32ba685	United States	f4aa12bb	c32ba685
ba1e97d4	CountyAdminArea	12590020	Bell County, Texas	Bell_County,_Texas	-97.49185	31.03624	362924	Texas	0722e674	United States	f4aa12bb	0722e674
3cde3168	CountyAdminArea	12589533	Belmont County, Ohio	Belmont_County,_Ohio	-80.96974	40.01134	67006	Ohio	d74c75f2	United States	f4aa12bb	d74c75f2
59fb6f90	CountyAdminArea	12588800	Beltrami County, Minnesota	Beltrami_County,_Minnesota	-95.00827	47.97485	47188	Minnesota	11f1fa88	United States	f4aa12bb	11f1fa88
657432b0	CountyAdminArea	12587878	Ben Hill County, Georgia	Ben_Hill_County,_Georgia	-83.2401	31.75183	16700	Georgia	713f340f	United States	f4aa12bb	713f340f
b5c525c3	CityTown	737191	Benavente, Portugal	Benavente,_Portugal	-8.80847	38.98127	18158	Santarém, Portugal	9f5562f7	Portugal	a2222b56	9f5562f7
afffe570	CountyAdminArea	12588038	Benewah County, Idaho	Benewah_County,_Idaho	-116.68224	47.21828	9298	Idaho	342f5b41	United States	f4aa12bb	342f5b41
a2130d16	Country	23424764	Benin	Benin	2.31313	9.32204	11485048					1713c6c2
72224c6b	CountyAdminArea	12589848	Bennett County, South Dakota	Bennett_County,_South_Dakota	-101.66927	43.19301	3365	South Dakota	d3a484f3	United States	f4aa12bb	d3a484f3
28215fb4	CountyAdminArea	12590291	Bennington County, Vermont	Bennington_County,_Vermont	-73.05509	43.02669	35470	Vermont	351cf73c	United States	f4aa12bb	351cf73c
483b84e7	CountyAdminArea	12589476	Benson County, North Dakota	Benson_County,_North_Dakota	-99.18683	48.10872	6832	North Dakota	ba23d922	United States	f4aa12bb	ba23d922
c7c09883	CountyAdminArea	12587733	Bent County, Colorado	Bent_County,_Colorado	-103.07248	37.95553	5577	Colorado	dd0a216b	United States	f4aa12bb	dd0a216b
906d924e	CountyAdminArea	12587598	Benton County, Arkansas	Benton_County,_Arkansas	-94.24282	36.29944	279141	Arkansas	23c77423	United States	f4aa12bb	23c77423
68b65b21	CountyAdminArea	12588183	Benton County, Indiana	Benton_County,_Indiana	-87.31006	40.60629	8748	Indiana	2e86d5a1	United States	f4aa12bb	2e86d5a1
d977e941	CountyAdminArea	12588277	Benton County, Iowa	Benton_County,_Iowa	-92.06519	42.0803	25645	Iowa	12a2001f	United States	f4aa12bb	12a2001f
bfcf4c0e	CountyAdminArea	12588801	Benton County, Minnesota	Benton_County,_Minnesota	-94.05612	45.69161	40889	Minnesota	11f1fa88	United States	f4aa12bb	11f1fa88
26cf4707	CountyAdminArea	12588888	Benton County, Mississippi	Benton_County,_Mississippi	-89.18488	34.78884	8259	Mississippi	264d2a09	United States	f4aa12bb	264d2a09
d1202a5d	CountyAdminArea	12588973	Benton County, Missouri	Benton_County,_Missouri	-93.2914	38.29885	19443	Missouri	2fa59461	United States	f4aa12bb	2fa59461
b609735a	CountyAdminArea	12589693	Benton County, Oregon	Benton_County,_Oregon	-123.44498	44.49888	93053	Oregon	e6c9dd69	United States	f4aa12bb	e6c9dd69
e83ec109	CountyAdminArea	12589914	Benton County, Tennessee	Benton_County,_Tennessee	-88.07037	36.0859	16160	Tennessee	487c4d03	United States	f4aa12bb	487c4d03
748bac00	CountyAdminArea	12590442	Benton County, Washington	Benton_County,_Washington	-119.40862	46.28166	204390	Washington	4211c98d	United States	f4aa12bb	4211c98d
36de78f2	CountyAdminArea	12588723	Benzie County, Michigan	Benzie_County,_Michigan	-86.03707	44.64583	17766	Michigan	12ff3a85	United States	f4aa12bb	12ff3a85
506a394f	CountyAdminArea	12589259	Bergen County, New Jersey	Bergen_County,_New_Jersey	-74.08317	40.94757	932202	New Jersey	8fdbe72c	United States	f4aa12bb	8fdbe72c
64f3b93a	CountyAdminArea	12589807	Berkeley County, South Carolina	Berkeley_County,_South_Carolina	-79.90424	33.16443	227907	South Carolina	540d0a4b	United States	f4aa12bb	540d0a4b
88b4d2cb	CountyAdminArea	12590480	Berkeley County, West Virginia	Berkeley_County,_West_Virginia	-78.02594	39.4427	119171	West Virginia	b0ff8d4f	United States	f4aa12bb	b0ff8d4f
c3ecce11	CountyAdminArea	12589733	Berks County, Pennsylvania	Berks_County,_Pennsylvania	-75.98492	40.40704	421164	Pennsylvania	08e34ff1	United States	f4aa12bb	08e34ff1
84d7be32	CountyAdminArea	12588701	Berkshire County, Massachusetts	Berkshire_County,_Massachusetts	-73.2284	42.3928	124944	Massachusetts	b31300a2	United States	f4aa12bb	b31300a2
8f94e6b2	CityTown	638242	Berlin	Berlin	13.42487	52.51607	3769495			Germany	e9f374b9	e9f374b9
d5ba2689	Country|Island	23424756	Bermuda	Bermuda	-64.78547	32.3031	63973					1713c6c2
c21ca85a	CountyAdminArea	12589279	Bernalillo County, New Mexico	Bernalillo_County,_New_Mexico	-106.6738	35.04432	679121	New Mexico	5c684afa	United States	f4aa12bb	5c684afa
1425c5ca	CountyAdminArea	12587879	Berrien County, Georgia	Berrien_County,_Georgia	-83.23638	31.2507	19397	Georgia	713f340f	United States	f4aa12bb	713f340f
55fdcea7	CountyAdminArea	12588724	Berrien County, Michigan	Berrien_County,_Michigan	-86.52388	42.00151	153401	Michigan	12ff3a85	United States	f4aa12bb	12ff3a85
552b32ad	CountyAdminArea	12589381	Bertie County, North Carolina	Bertie_County,_North_Carolina	-77.00474	36.0294	18947	North Carolina	2a863897	United States	f4aa12bb	2a863897
706e8e76	CountyAdminArea	12587557	Bethel Census Area, Alaska	Bethel_Census_Area,_Alaska	-162.31535	60.39567	18386	Alaska	b73c0248	United States	f4aa12bb	b73c0248
5b01eec0	CountyAdminArea	12590021	Bexar County, Texas	Bexar_County,_Texas	-98.46171	29.43756	2003554	Texas	0722e674	United States	f4aa12bb	0722e674
47171281	Country	23424770	Bhutan	Bhutan	90.44227	27.5155	754394					1713c6c2
73c95466	CountyAdminArea	12587490	Bibb County, Alabama	Bibb_County,_Alabama	-87.14917	33.03914	22394	Alabama	ffba01d8	United States	f4aa12bb	ffba01d8
8ce601b4	CountyAdminArea	12587880	Bibb County, Georgia	Bibb_County,_Georgia	-83.69112	32.80624	153159	Georgia	713f340f	United States	f4aa12bb	713f340f
202f8ad4	CountyAdminArea	12588602	Bienville Parish, Louisiana	Bienville_Parish,_Louisiana	-93.10122	32.36619	13241	Louisiana	d8434284	United States	f4aa12bb	d8434284
a760cbf2	CountyAdminArea	12589082	Big Horn County, Montana	Big_Horn_County,_Montana	-107.48178	45.51872	13319	Montana	50f779e5	United States	f4aa12bb	50f779e5
e2a27b3d	CountyAdminArea	12590607	Big Horn County, Wyoming	Big_Horn_County,_Wyoming	-107.88353	44.58355	11790	Wyoming	fa783aae	United States	f4aa12bb	fa783aae
44a876e1	CountyAdminArea	12588802	Big Stone County, Minnesota	Big_Stone_County,_Minnesota	-96.4696	45.38139	4991	Minnesota	11f1fa88	United States	f4aa12bb	11f1fa88
7ce4d59e	StateAdminArea	2345742	Bihar	Bihar	85.80107	25.90313	82878796			India	beea9395	beea9395
48627624	CountyAdminArea	12589477	Billings County, North Dakota	Billings_County,_North_Dakota	-103.34998	46.97945	928	North Dakota	ba23d922	United States	f4aa12bb	ba23d922
77086ff2	CountyAdminArea	12588039	Bingham County, Idaho	Bingham_County,_Idaho	-112.29798	43.24477	46811	Idaho	342f5b41	United States	f4aa12bb	342f5b41
1b6e322f	StateAdminArea		Biobío Region	Biob%C3%ADo_Region	-73.05	-36.833332	1557414			Chile	56d89b84	56d89b84
2dd82b0b	CountyAdminArea	12588278	Black Hawk County, Iowa	Black_Hawk_County,_Iowa	-92.30928	42.46976	131228	Iowa	12a2001f	United States	f4aa12bb	12a2001f
2796d278	CountyAdminArea	12588184	Blackford County, Indiana	Blackford_County,_Indiana	-85.3238	40.47276	11758	Indiana	2e86d5a1	United States	f4aa12bb	2e86d5a1
c99d04a5	CountyAdminArea	12589382	Bladen County, North Carolina	Bladen_County,_North_Carolina	-78.53924	34.61176	32722	North Carolina	2a863897	United States	f4aa12bb	2a863897
0d26a66b	CountyAdminArea	12588040	Blaine County, Idaho	Blaine_County,_Idaho	-114.00197	43.30445	23021	Idaho	342f5b41	United States	f4aa12bb	342f5b41
d4928e19	CountyAdminArea	12589083	Blaine County, Montana	Blaine_County,_Montana	-108.894	48.36019	6681	Montana	50f779e5	United States	f4aa12bb	50f779e5
74506cc7	CountyAdminArea	12589142	Blaine County, Nebraska	Blaine_County,_Nebraska	-99.97719	41.91246	465	Nebraska	99e8e943	United States	f4aa12bb	99e8e943
16fabc86	CountyAdminArea	12589620	Blaine County, Oklahoma	Blaine_County,_Oklahoma	-98.42184	35.85844	9429	Oklahoma	ca8120a2	United States	f4aa12bb	ca8120a2
4c7884f2	CountyAdminArea	12589734	Blair County, Pennsylvania	Blair_County,_Pennsylvania	-78.34415	40.49343	121829	Pennsylvania	08e34ff1	United States	f4aa12bb	08e34ff1
84127251	CountyAdminArea	12590022	Blanco County, Texas	Blanco_County,_Texas	-98.35857	30.21996	11931	Texas	0722e674	United States	f4aa12bb	0722e674
e6ab85da	CountyAdminArea	12590316	Bland County, Virginia	Bland_County,_Virginia	-81.15846	37.12743	6280	Virginia	b8fc73b9	United States	f4aa12bb	b8fc73b9
7724431b	CountyAdminArea	12587881	Bleckley County, Georgia	Bleckley_County,_Georgia	-83.31853	32.42838	12873	Georgia	713f340f	United States	f4aa12bb	713f340f
714b083d	CountyAdminArea	12589915	Bledsoe County, Tennessee	Bledsoe_County,_Tennessee	-85.17616	35.56298	15064	Tennessee	487c4d03	United States	f4aa12bb	487c4d03
55b809f9	CountyAdminArea|StateAdminArea		Blekinge County	Blekinge_County	14.381104	56.24335	159367			Sweden	dc88bbf0	dc88bbf0
9165ffc8	CountyAdminArea	12587491	Blount County, Alabama	Blount_County,_Alabama	-86.63345	34.01276	57826	Alabama	ffba01d8	United States	f4aa12bb	ffba01d8
f6cce9e7	CountyAdminArea	12589916	Blount County, Tennessee	Blount_County,_Tennessee	-83.92556	35.67384	133088	Tennessee	487c4d03	United States	f4aa12bb	487c4d03
cecd0562	CountyAdminArea	12588803	Blue Earth County, Minnesota	Blue_Earth_County,_Minnesota	-94.06955	44.05646	67653	Minnesota	11f1fa88	United States	f4aa12bb	11f1fa88
2cc30064	CountyAdminArea	12588041	Boise County, Idaho	Boise_County,_Idaho	-115.62423	43.96922	7831	Idaho	342f5b41	United States	f4aa12bb	342f5b41
f32bdbb7	CountyAdminArea	12588889	Bolivar County, Mississippi	Bolivar_County,_Mississippi	-90.94403	33.82484	30628	Mississippi	264d2a09	United States	f4aa12bb	264d2a09
4e26f45c	Country	23424762	Bolivia	Bolivia	-63.54942	-16.28835	11353142					1713c6c2
3c1d25af	CountyAdminArea	12588974	Bollinger County, Missouri	Bollinger_County,_Missouri	-90.04192	37.31965	12133	Missouri	2fa59461	United States	f4aa12bb	2fa59461
bfd64026	CityTown|CountyAdminArea	737408	Bombarral	Bombarral	-9.15981	39.2653	12913			Portugal	a2222b56	a2222b56
e3e96d90	CountyAdminArea	12589849	Bon Homme County, South Dakota	Bon_Homme_County,_South_Dakota	-97.82404	42.96581	6901	South Dakota	d3a484f3	United States	f4aa12bb	d3a484f3
895aadc2	CountyAdminArea	12588080	Bond County, Illinois	Bond_County,_Illinois	-89.44469	38.88446	16426	Illinois	33204009	United States	f4aa12bb	33204009
d46edb6c	CountyAdminArea	12588042	Bonner County, Idaho	Bonner_County,_Idaho	-116.54553	48.36874	45739	Idaho	342f5b41	United States	f4aa12bb	342f5b41
4f2e2f1f	CountyAdminArea	12588043	Bonneville County, Idaho	Bonneville_County,_Idaho	-111.78223	43.32292	119062	Idaho	342f5b41	United States	f4aa12bb	342f5b41
55eec3af	CountyAdminArea	12587599	Boone County, Arkansas	Boone_County,_Arkansas	-93.07719	36.30631	37432	Arkansas	23c77423	United States	f4aa12bb	23c77423
36ca36ff	CountyAdminArea	12588081	Boone County, Illinois	Boone_County,_Illinois	-88.82319	42.3237	53544	Illinois	33204009	United States	f4aa12bb	33204009
d2aa5360	CountyAdminArea	12588185	Boone County, Indiana	Boone_County,_Indiana	-86.46824	40.05159	67843	Indiana	2e86d5a1	United States	f4aa12bb	2e86d5a1
d46b1a8f	CountyAdminArea	12588279	Boone County, Iowa	Boone_County,_Iowa	-93.93145	42.0365	26234	Iowa	12a2001f	United States	f4aa12bb	12a2001f
0ef8e89d	CountyAdminArea	12588483	Boone County, Kentucky	Boone_County,_Kentucky	-84.7477	38.96267	133581	Kentucky	c32ba685	United States	f4aa12bb	c32ba685
34cc410b	CountyAdminArea	12588975	Boone County, Missouri	Boone_County,_Missouri	-92.33735	38.94597	180463	Missouri	2fa59461	United States	f4aa12bb	2fa59461
e79309c1	CountyAdminArea	12589143	Boone County, Nebraska	Boone_County,_Nebraska	-98.06285	41.69843	5192	Nebraska	99e8e943	United States	f4aa12bb	99e8e943
438b1007	CountyAdminArea	12590481	Boone County, West Virginia	Boone_County,_West_Virginia	-81.71747	37.99696	21457	West Virginia	b0ff8d4f	United States	f4aa12bb	b0ff8d4f
beacff42	CountyAdminArea	12590023	Borden County, Texas	Borden_County,_Texas	-101.43228	32.74382	654	Texas	0722e674	United States	f4aa12bb	0722e674
06e985c9	Country	23424761	Bosnia and Herzegovina	Bosnia_and_Herzegovina	17.67696	43.9201	3323929					1713c6c2
f60923e9	CountyAdminArea	12590024	Bosque County, Texas	Bosque_County,_Texas	-97.64086	31.89746	18685	Texas	0722e674	United States	f4aa12bb	0722e674
9aa43030	CountyAdminArea	12588603	Bossier Parish, Louisiana	Bossier_Parish,_Louisiana	-93.60875	32.62774	127039	Louisiana	d8434284	United States	f4aa12bb	d8434284
ea68083b	CountyAdminArea	12590317	Botetourt County, Virginia	Botetourt_County,_Virginia	-79.78624	37.55505	33419	Virginia	b8fc73b9	United States	f4aa12bb	b8fc73b9
3e232143	Country	23424755	Botswana	Botswana	24.68016	-22.34403	2254126					1713c6c2
ea255093	CountyAdminArea	12589478	Bottineau County, North Dakota	Bottineau_County,_North_Dakota	-100.8213	48.77213	6282	North Dakota	ba23d922	United States	f4aa12bb	ba23d922
62f68bb4	CountyAdminArea	12587734	Boulder County, Colorado	Boulder_County,_Colorado	-105.37369	40.08843	326196	Colorado	dd0a216b	United States	f4aa12bb	dd0a216b
6bc35e59	CountyAdminArea	12588044	Boundary County, Idaho	Boundary_County,_Idaho	-116.54057	48.75047	12245	Idaho	342f5b41	United States	f4aa12bb	342f5b41
d8eec6eb	CountyAdminArea	12588376	Bourbon County, Kansas	Bourbon_County,_Kansas	-94.85104	37.85545	14534	Kansas	2d125485	United States	f4aa12bb	2d125485
267c0c1c	CountyAdminArea	12588484	Bourbon County, Kentucky	Bourbon_County,_Kentucky	-84.20595	38.2193	19788	Kentucky	c32ba685	United States	f4aa12bb	c32ba685
56d5b090	StateAdminArea		Bourgogne-Franche-Comté	Bourgogne-Franche-Comt%C3%A9			2820940					
a6761ca8	CountyAdminArea	12590025	Bowie County, Texas	Bowie_County,_Texas	-94.39471	33.47015	93245	Texas	0722e674	United States	f4aa12bb	0722e674
5906780f	CountyAdminArea	12589479	Bowman County, North Dakota	Bowman_County,_North_Dakota	-103.52082	46.11274	3024	North Dakota	ba23d922	United States	f4aa12bb	ba23d922
e4881c4c	CountyAdminArea	12589144	Box Butte County, Nebraska	Box_Butte_County,_Nebraska	-103.07123	42.22041	10783	Nebraska	99e8e943	United States	f4aa12bb	99e8e943
827735c8	CountyAdminArea	12590262	Box Elder County, Utah	Box_Elder_County,_Utah	-112.95724	41.50058	56046	Utah	6c0dccb8	United States	f4aa12bb	6c0dccb8
d2a57540	CountyAdminArea	12588485	Boyd County, Kentucky	Boyd_County,_Kentucky	-82.69466	38.37014	46718	Kentucky	c32ba685	United States	f4aa12bb	c32ba685
4ab270bb	CountyAdminArea	12589145	Boyd County, Nebraska	Boyd_County,_Nebraska	-98.78135	42.87991	1919	Nebraska	99e8e943	United States	f4aa12bb	99e8e943
9e3fd2c4	CountyAdminArea	12588486	Boyle County, Kentucky	Boyle_County,_Kentucky	-84.84562	37.62464	30060	Kentucky	c32ba685	United States	f4aa12bb	c32ba685
d9fa5383	CountyAdminArea	12588487	Bracken County, Kentucky	Bracken_County,_Kentucky	-84.06996	38.68862	8303	Kentucky	c32ba685	United States	f4aa12bb	c32ba685
89957966	CountyAdminArea	12587806	Bradford County, Florida	Bradford_County,_Florida	-82.23244	29.93076	28201	Florida	ac78ae1d	United States	f4aa12bb	ac78ae1d
12d0fdd0	CountyAdminArea	12589735	Bradford County, Pennsylvania	Bradford_County,_Pennsylvania	-76.52108	41.77197	60323	Pennsylvania	08e34ff1	United States	f4aa12bb	08e34ff1
8274f822	CountyAdminArea	12587600	Bradley County, Arkansas	Bradley_County,_Arkansas	-92.17119	33.4344	10763	Arkansas	23c77423	United States	f4aa12bb	23c77423
e1adf08a	CountyAdminArea	12589917	Bradley County, Tennessee	Bradley_County,_Tennessee	-84.86189	35.17267	108110	Tennessee	487c4d03	United States	f4aa12bb	487c4d03
22928d74	CountyAdminArea	12588725	Branch County, Michigan	Branch_County,_Michigan	-85.05931	41.9162	43517	Michigan	12ff3a85	United States	f4aa12bb	12ff3a85
88d3b5b4	StateAdminArea	2345491	Brandenburg	Brandenburg	13.0175	52.45846	2563407			Germany	e9f374b9	e9f374b9
72d48a6c	CountyAdminArea	12587882	Brantley County, Georgia	Brantley_County,_Georgia	-82.00801	31.19197	19109	Georgia	713f340f	United States	f4aa12bb	713f340f
2a9079d8	CountyAdminArea	12590482	Braxton County, West Virginia	Braxton_County,_West_Virginia	-80.73689	38.70616	13957	West Virginia	b0ff8d4f	United States	f4aa12bb	b0ff8d4f
618cd974	Country	23424768	Brazil	Brazil	-54.3878	-14.2429	209469333					1713c6c2
7737a217	CountyAdminArea	12590026	Brazoria County, Texas	Brazoria_County,_Texas	-95.46489	29.21202	374264	Texas	0722e674	United States	f4aa12bb	0722e674
fd23ad7f	CountyAdminArea	12590027	Brazos County, Texas	Brazos_County,_Texas	-96.34097	30.65121	229211	Texas	0722e674	United States	f4aa12bb	0722e674
1a09a084	CountyAdminArea	12588488	Breathitt County, Kentucky	Breathitt_County,_Kentucky	-83.26425	37.51493	12630	Kentucky	c32ba685	United States	f4aa12bb	c32ba685
704b3eda	CountyAdminArea	12588489	Breckinridge County, Kentucky	Breckinridge_County,_Kentucky	-86.41478	37.80219	20477	Kentucky	c32ba685	United States	f4aa12bb	c32ba685
fa48198a	CountyAdminArea|StateAdminArea	12597033	Bremen (state)	Bremen_(state)	8.7363	53.12013	681032			Germany	e9f374b9	e9f374b9
5e2434b9	CountyAdminArea	12588280	Bremer County, Iowa	Bremer_County,_Iowa	-92.31789	42.77487	25062	Iowa	12a2001f	United States	f4aa12bb	12a2001f
c72fde1f	CountyAdminArea	12587807	Brevard County, Florida	Brevard_County,_Florida	-80.71719	28.30679	601942	Florida	ac78ae1d	United States	f4aa12bb	ac78ae1d
085d8f97	CountyAdminArea	12590028	Brewster County, Texas	Brewster_County,_Texas	-103.06048	29.81875	9203	Texas	0722e674	United States	f4aa12bb	0722e674
3c51625b	CountyAdminArea	12590029	Briscoe County, Texas	Briscoe_County,_Texas	-101.20843	34.53041	1546	Texas	0722e674	United States	f4aa12bb	0722e674
501fd580	CityTown|CountyAdminArea	2369337	Bristol, Virginia	Bristol,_Virginia	-82.18079	36.61662	16762	Virginia	b8fc73b9	United States	f4aa12bb	b8fc73b9
089ac144	CountyAdminArea	12587558	Bristol Bay Borough, Alaska	Bristol_Bay_Borough,_Alaska	-157.15936	58.75227	836	Alaska	b73c0248	United States	f4aa12bb	b73c0248
a84009fd	CountyAdminArea	12588702	Bristol County, Massachusetts	Bristol_County,_Massachusetts	-71.11174	41.78858	565217	Massachusetts	b31300a2	United States	f4aa12bb	b31300a2
70ce0c0c	CountyAdminArea	12589795	Bristol County, Rhode Island	Bristol_County,_Rhode_Island	-71.2898	41.7093	48479	Rhode Island	f061de21	United States	f4aa12bb	f061de21
e2c2edd8	StateAdminArea	2344916	British Columbia	British_Columbia	-126.55071	54.49887	4648055			Canada	91a4263f	91a4263f
10418e7e	Country	23424983	British Virgin Islands	British_Virgin_Islands	-64.63549	18.42682	29802					1713c6c2
36eee7d4	StateAdminArea	7153313	Brittany (administrative region)	Brittany_(administrative_region)	-3.0	48.0	3237097					dc3805d4
723abae4	CountyAdminArea	12589084	Broadwater County, Montana	Broadwater_County,_Montana	-111.42249	46.3076	6237	Montana	50f779e5	United States	f4aa12bb	50f779e5
1534ce1c	CountyAdminArea	12590483	Brooke County, West Virginia	Brooke_County,_West_Virginia	-80.59962	40.2798	21939	West Virginia	b0ff8d4f	United States	f4aa12bb	b0ff8d4f
57a66a9d	CountyAdminArea	12589850	Brookings County, South Dakota	Brookings_County,_South_Dakota	-96.79072	44.3696	35077	South Dakota	d3a484f3	United States	f4aa12bb	d3a484f3
acaa4ab1	CityTown|CountyAdminArea	12589335	Brooklyn	Brooklyn	-73.94888	40.65507	2559903	New York (state)	f7a12080	United States	f4aa12bb	e377d11e
d0bb21fc	CountyAdminArea	12587883	Brooks County, Georgia	Brooks_County,_Georgia	-83.54518	30.85806	15457	Georgia	713f340f	United States	f4aa12bb	713f340f
91f1c709	CountyAdminArea	12590030	Brooks County, Texas	Brooks_County,_Texas	-98.26102	27.02314	7093	Texas	0722e674	United States	f4aa12bb	0722e674
504fca1f	CountyAdminArea	12589315	Broome County, New York	Broome_County,_New_York	-75.74457	42.20674	190488	New York (state)	f7a12080	United States	f4aa12bb	f7a12080
6c54a758	CityTown|CountyAdminArea	26343011	Broomfield, Colorado	Broomfield,_Colorado	-105.07	39.96666	70465	Colorado	dd0a216b	United States	f4aa12bb	dd0a216b
a676af31	CountyAdminArea	12587808	Broward Center for the Performing Arts	Broward_Center_for_the_Performing_Arts	-80.47753	26.14574	1623018	Florida	ac78ae1d	United States	f4aa12bb	ac78ae1d
8c34c986	CountyAdminArea	12588082	Brown County, Illinois	Brown_County,_Illinois	-90.71375	39.97245	6578	Illinois	33204009	United States	f4aa12bb	33204009
49099a60	CountyAdminArea	12588186	Brown County, Indiana	Brown_County,_Indiana	-86.23023	39.19629	15092	Indiana	2e86d5a1	United States	f4aa12bb	2e86d5a1
551c5d9b	CountyAdminArea	12588377	Brown County, Kansas	Brown_County,_Kansas	-95.56432	39.82659	9564	Kansas	2d125485	United States	f4aa12bb	2d125485
e63a1677	CountyAdminArea	12588804	Brown County, Minnesota	Brown_County,_Minnesota	-94.73875	44.30303	25008	Minnesota	11f1fa88	United States	f4aa12bb	11f1fa88
58a3b6a5	CountyAdminArea	12589146	Brown County, Nebraska	Brown_County,_Nebraska	-99.93042	42.46537	2955	Nebraska	99e8e943	United States	f4aa12bb	99e8e943
cafad880	CountyAdminArea	12589534	Brown County, Ohio	Brown_County,_Ohio	-83.86287	38.94695	43432	Ohio	d74c75f2	United States	f4aa12bb	d74c75f2
2e975c54	CountyAdminArea	12589851	Brown County, South Dakota	Brown_County,_South_Dakota	-98.35194	45.58949	38839	South Dakota	d3a484f3	United States	f4aa12bb	d3a484f3
c4fe1ee1	CountyAdminArea	12590031	Brown County, Texas	Brown_County,_Texas	-98.93601	31.76396	37864	Texas	0722e674	United States	f4aa12bb	0722e674
7b723d52	CountyAdminArea	12590538	Brown County, Wisconsin	Brown_County,_Wisconsin	-88.00748	44.46016	264542	Wisconsin	a5a6fe10	United States	f4aa12bb	a5a6fe10
bd996683	CountyAdminArea	12591706	Bruck an der Mur District	Bruck_an_der_Mur_District	15.2346	47.56797	65155	Styria	6e770fc7	Austria	a4da20c4	6e770fc7
aa0f811a	CountyAdminArea	12589852	Brule County, South Dakota	Brule_County,_South_Dakota	-99.1319	43.71716	5297	South Dakota	d3a484f3	United States	f4aa12bb	d3a484f3
64f5d500	Country	23424773	Brunei	Brunei	114.59897	4.52513	428962					1713c6c2
b5aee5a1	CountyAdminArea	12589383	Brunswick County, North Carolina	Brunswick_County,_North_Carolina	-78.29558	34.10956	142820	North Carolina	2a863897	United States	f4aa12bb	2a863897
efea050d	CountyAdminArea	12590319	Brunswick County, Virginia	Brunswick_County,_Virginia	-77.85097	36.78393	16231	Virginia	b8fc73b9	United States	f4aa12bb	b8fc73b9
bf8a61d5	CountyAdminArea	12587884	Bryan County, Georgia	Bryan_County,_Georgia	-81.4598	31.98421	39627	Georgia	713f340f	United States	f4aa12bb	713f340f
54932fcb	CountyAdminArea	12589621	Bryan County, Oklahoma	Bryan_County,_Oklahoma	-96.1902	33.92169	47995	Oklahoma	ca8120a2	United States	f4aa12bb	ca8120a2
1495d3b8	CountyAdminArea	12588281	Buchanan County, Iowa	Buchanan_County,_Iowa	-91.83956	42.47013	21175	Iowa	12a2001f	United States	f4aa12bb	12a2001f
adba2722	CountyAdminArea	12588976	Buchanan County, Missouri	Buchanan_County,_Missouri	-94.8575	39.67634	87364	Missouri	2fa59461	United States	f4aa12bb	2fa59461
63735b4f	CountyAdminArea	12590320	Buchanan County, Virginia	Buchanan_County,_Virginia	-82.02428	37.2893	21004	Virginia	b8fc73b9	United States	f4aa12bb	b8fc73b9
f628eb03	CountyAdminArea	12590321	Buckingham County, Virginia	Buckingham_County,_Virginia	-78.53642	37.5628	17148	Virginia	b8fc73b9	United States	f4aa12bb	b8fc73b9
28ceeedf	CountyAdminArea	12589736	Bucks County, Pennsylvania	Bucks_County,_Pennsylvania	-75.10254	40.3285	628270	Pennsylvania	08e34ff1	United States	f4aa12bb	08e34ff1
065d3fb8	CityTown|CountyAdminArea	2371410	Buena Vista, Virginia	Buena_Vista,_Virginia	-79.35654	37.73781	6478	Virginia	b8fc73b9	United States	f4aa12bb	b8fc73b9
833b0a54	CountyAdminArea	12588282	Buena Vista County, Iowa	Buena_Vista_County,_Iowa	-95.15093	42.7352	19620	Iowa	12a2001f	United States	f4aa12bb	12a2001f
133b424a	CountyAdminArea	12589147	Buffalo County, Nebraska	Buffalo_County,_Nebraska	-99.07409	40.84963	49659	Nebraska	99e8e943	United States	f4aa12bb	99e8e943
3c1d567b	CountyAdminArea	12589853	Buffalo County, South Dakota	Buffalo_County,_South_Dakota	-99.25216	44.0647	1962	South Dakota	d3a484f3	United States	f4aa12bb	d3a484f3
98d5d5a8	CountyAdminArea	12590539	Buffalo County, Wisconsin	Buffalo_County,_Wisconsin	-91.80649	44.31118	13031	Wisconsin	a5a6fe10	United States	f4aa12bb	a5a6fe10
7462aa66	Country	23424771	Bulgaria	Bulgaria	25.48312	42.7316	7025037					1713c6c2
6e1ed94b	CountyAdminArea	12588490	Bullitt County, Kentucky	Bullitt_County,_Kentucky	-85.68759	37.96211	81676	Kentucky	c32ba685	United States	f4aa12bb	c32ba685
f8bc0321	CountyAdminArea	12587885	Bulloch County, Georgia	Bulloch_County,_Georgia	-81.73171	32.40308	79608	Georgia	713f340f	United States	f4aa12bb	713f340f
6687eb90	CountyAdminArea	12587492	Bullock County, Alabama	Bullock_County,_Alabama	-85.70465	32.09272	10101	Alabama	ffba01d8	United States	f4aa12bb	ffba01d8
c0c60517	CountyAdminArea	12589384	Buncombe County, North Carolina	Buncombe_County,_North_Carolina	-82.52863	35.62274	261191	North Carolina	2a863897	United States	f4aa12bb	2a863897
249a618e	CountyAdminArea	12588083	Bureau County, Illinois	Bureau_County,_Illinois	-89.51299	41.36691	32628	Illinois	33204009	United States	f4aa12bb	33204009
7e8ed72c	StateAdminArea	2344708	Burgenland	Burgenland	16.57913	47.47434	284900			Austria	a4da20c4	a4da20c4
bcbb8792	CountyAdminArea	12587886	Burke County, Georgia	Burke_County,_Georgia	-81.92895	33.05038	22383	Georgia	713f340f	United States	f4aa12bb	713f340f
cb19b191	CountyAdminArea	12589385	Burke County, North Carolina	Burke_County,_North_Carolina	-81.67537	35.77907	90485	North Carolina	2a863897	United States	f4aa12bb	2a863897
6ecaf815	CountyAdminArea	12589480	Burke County, North Dakota	Burke_County,_North_Dakota	-102.48058	48.77275	2115	North Dakota	ba23d922	United States	f4aa12bb	ba23d922
1cbc4d5e	Country	23424978	Burkina Faso	Burkina_Faso	-1.55676	12.24184	19751535					1713c6c2
b7278a6e	CountyAdminArea	12589481	Burleigh County, North Dakota	Burleigh_County,_North_Dakota	-100.52031	46.9806	95626	North Dakota	ba23d922	United States	f4aa12bb	ba23d922
fffeb585	CountyAdminArea	12590032	Burleson County, Texas	Burleson_County,_Texas	-96.61767	30.51321	18443	Texas	0722e674	United States	f4aa12bb	0722e674
a30c4302	CountyAdminArea	12589260	Burlington County, New Jersey	Burlington_County,_New_Jersey	-74.72449	39.86017	445349	New Jersey	8fdbe72c	United States	f4aa12bb	8fdbe72c
8d303a95	CountyAdminArea	12590033	Burnet County, Texas	Burnet_County,_Texas	-98.1441	30.73068	48155	Texas	0722e674	United States	f4aa12bb	0722e674
ec021143	CountyAdminArea	12590540	Burnett County, Wisconsin	Burnett_County,_Wisconsin	-92.45908	45.89863	15414	Wisconsin	a5a6fe10	United States	f4aa12bb	a5a6fe10
0f7335f0	CountyAdminArea	12589148	Burt County, Nebraska	Burt_County,_Nebraska	-96.30994	41.86503	6459	Nebraska	99e8e943	United States	f4aa12bb	99e8e943
83ad89df	Country	23424774	Burundi	Burundi	29.92039	-3.38791	11175378					1713c6c2
765c4886	CountyAdminArea	12587493	Butler County, Alabama	Butler_County,_Alabama	-86.67338	31.74421	19448	Alabama	ffba01d8	United States	f4aa12bb	ffba01d8
ad31d75f	CountyAdminArea	12588283	Butler County, Iowa	Butler_County,_Iowa	-92.79058	42.73165	14439	Iowa	12a2001f	United States	f4aa12bb	12a2001f
5f07ab6a	CountyAdminArea	12588378	Butler County, Kansas	Butler_County,_Kansas	-96.83805	37.78157	66911	Kansas	2d125485	United States	f4aa12bb	2d125485
1ba15793	CountyAdminArea	12588491	Butler County, Kentucky	Butler_County,_Kentucky	-86.67198	37.19738	12879	Kentucky	c32ba685	United States	f4aa12bb	c32ba685
3a62b679	CountyAdminArea	12588977	Butler County, Missouri	Butler_County,_Missouri	-90.40724	36.71242	42478	Missouri	2fa59461	United States	f4aa12bb	2fa59461
0adc67fa	CountyAdminArea	12589149	Butler County, Nebraska	Butler_County,_Nebraska	-97.1371	41.2505	8016	Nebraska	99e8e943	United States	f4aa12bb	99e8e943
8224f696	CountyAdminArea	12589535	Butler County, Ohio	Butler_County,_Ohio	-84.57573	39.44098	383134	Ohio	d74c75f2	United States	f4aa12bb	d74c75f2
9d3a3a6d	CountyAdminArea	12589737	Butler County, Pennsylvania	Butler_County,_Pennsylvania	-79.92749	40.92128	187853	Pennsylvania	08e34ff1	United States	f4aa12bb	08e34ff1
04a2536b	CountyAdminArea	12587673	Butte County, California	Butte_County,_California	-121.57429	39.7227	219186	California	2902c400	United States	f4aa12bb	2902c400
3aa67ef6	CountyAdminArea	12588045	Butte County, Idaho	Butte_County,_Idaho	-113.24656	43.75936	2597	Idaho	342f5b41	United States	f4aa12bb	342f5b41
e4fefa04	CountyAdminArea	12589854	Butte County, South Dakota	Butte_County,_South_Dakota	-103.50756	44.89248	10429	South Dakota	d3a484f3	United States	f4aa12bb	d3a484f3
84b4c1dd	CountyAdminArea	12587887	Butts County, Georgia	Butts_County,_Georgia	-83.96549	33.31542	24936	Georgia	713f340f	United States	f4aa12bb	713f340f
f258329f	StateAdminArea		Béni Mellal-Khénifra	B%C3%A9ni_Mellal-Kh%C3%A9nifra	-6.35	32.46	2520776			Morocco	7040f25f	7040f25f
fcd7789b	CountyAdminArea	12589386	Cabarrus County, North Carolina	Cabarrus_County,_North_Carolina	-80.54123	35.34654	216453	North Carolina	2a863897	United States	f4aa12bb	2a863897
b6b8f13d	CityTown	737736	Cabeceiras de Basto	Cabeceiras_de_Basto	-7.98602	41.51377	16365			Portugal	a2222b56	a2222b56
43fce3f7	CountyAdminArea	12590484	Cabell County, West Virginia	Cabell_County,_West_Virginia	-82.27749	38.41317	91945	West Virginia	b0ff8d4f	United States	f4aa12bb	b0ff8d4f
d0ecfb4b	CountyAdminArea	12590263	Cache County, Utah	Cache_County,_Utah	-111.78385	41.6842	128289	Utah	6c0dccb8	United States	f4aa12bb	6c0dccb8
7014e9ba	CityTown|CountyAdminArea	737844	Cadaval	Cadaval	-9.10238	39.24272	13692			Portugal	a2222b56	a2222b56
26cfa2d5	CountyAdminArea	12589622	Caddo County, Oklahoma	Caddo_County,_Oklahoma	-98.35748	35.20323	28762	Oklahoma	ca8120a2	United States	f4aa12bb	ca8120a2
ddd68ef6	CountyAdminArea	12588604	Caddo Parish, Louisiana	Caddo_Parish,_Louisiana	-93.90107	32.60764	240204	Louisiana	d8434284	United States	f4aa12bb	d8434284
5226ab9f	StateAdminArea	7153332	Calabria	Calabria	16.418	39.0299	1993274			Italy	09edd772	09edd772
36aa6db2	CountyAdminArea	12587674	Calaveras County, California	Calaveras_County,_California	-120.50673	38.17138	45905	California	2902c400	United States	f4aa12bb	2902c400
822157c7	CountyAdminArea	12588605	Calcasieu Parish, Louisiana	Calcasieu_Parish,_Louisiana	-93.32647	30.26425	203436	Louisiana	d8434284	United States	f4aa12bb	d8434284
501138f4	CityTown|CountyAdminArea	737889	Caldas da Rainha	Caldas_da_Rainha	-9.13684	39.40926	51729			Portugal	a2222b56	a2222b56
88ec45f4	CountyAdminArea	12588492	Caldwell County, Kentucky	Caldwell_County,_Kentucky	-87.88716	37.16518	12747	Kentucky	c32ba685	United States	f4aa12bb	c32ba685
9818ea5a	CountyAdminArea	12588978	Caldwell County, Missouri	Caldwell_County,_Missouri	-93.9833	39.65671	9020	Missouri	2fa59461	United States	f4aa12bb	2fa59461
e88b934e	CountyAdminArea	12589387	Caldwell County, North Carolina	Caldwell_County,_North_Carolina	-81.56997	35.93979	82178	North Carolina	2a863897	United States	f4aa12bb	2a863897
298f473b	CountyAdminArea	12590034	Caldwell County, Texas	Caldwell_County,_Texas	-97.60753	29.85113	43664	Texas	0722e674	United States	f4aa12bb	0722e674
25ed9ef5	CountyAdminArea	12588606	Caldwell Parish, Louisiana	Caldwell_Parish,_Louisiana	-92.09009	32.10208	9918	Louisiana	d8434284	United States	f4aa12bb	d8434284
7f3823df	CountyAdminArea	12590292	Caledonia County, Vermont	Caledonia_County,_Vermont	-72.13566	44.46285	29993	Vermont	351cf73c	United States	f4aa12bb	351cf73c
86428d97	CityTown	537936	Calheta, Azores	Calheta,_Azores	-28.01778	38.60424				Portugal	a2222b56	a2222b56
d995697c	CountyAdminArea	12587494	Calhoun County, Alabama	Calhoun_County,_Alabama	-85.83777	33.76226	113605	Alabama	ffba01d8	United States	f4aa12bb	ffba01d8
68700105	CountyAdminArea	12587601	Calhoun County, Arkansas	Calhoun_County,_Arkansas	-92.54367	33.53581	5189	Arkansas	23c77423	United States	f4aa12bb	23c77423
35ad2d1f	CountyAdminArea	12587809	Calhoun County, Florida	Calhoun_County,_Florida	-85.16134	30.40389	14105	Florida	ac78ae1d	United States	f4aa12bb	ac78ae1d
af3e389c	CountyAdminArea	12587888	Calhoun County, Georgia	Calhoun_County,_Georgia	-84.62022	31.53571	6189	Georgia	713f340f	United States	f4aa12bb	713f340f
1177f5b7	CountyAdminArea	12588084	Calhoun County, Illinois	Calhoun_County,_Illinois	-90.69385	39.13435	4739	Illinois	33204009	United States	f4aa12bb	33204009
7c65af13	CountyAdminArea	12588284	Calhoun County, Iowa	Calhoun_County,_Iowa	-94.65588	42.38472	9668	Iowa	12a2001f	United States	f4aa12bb	12a2001f
0f3b1b1b	CountyAdminArea	12588726	Calhoun County, Michigan	Calhoun_County,_Michigan	-85.00453	42.24624	134159	Michigan	12ff3a85	United States	f4aa12bb	12ff3a85
e5347290	CountyAdminArea	12588890	Calhoun County, Mississippi	Calhoun_County,_Mississippi	-89.32377	33.94187	14361	Mississippi	264d2a09	United States	f4aa12bb	264d2a09
d13b9392	CountyAdminArea	12589808	Calhoun County, South Carolina	Calhoun_County,_South_Carolina	-80.77577	33.67258	14553	South Carolina	540d0a4b	United States	f4aa12bb	540d0a4b
e06ca325	CountyAdminArea	12590035	Calhoun County, Texas	Calhoun_County,_Texas	-96.65178	28.52245	21290	Texas	0722e674	United States	f4aa12bb	0722e674
56a5f7e0	CountyAdminArea	12590485	Calhoun County, West Virginia	Calhoun_County,_West_Virginia	-81.13211	38.82865	7109	West Virginia	b0ff8d4f	United States	f4aa12bb	b0ff8d4f
2902c400	StateAdminArea	2347563	California	California	-119.61038	37.24609	39512223			United States	f4aa12bb	f4aa12bb
210486ae	CountyAdminArea	12590036	Callahan County, Texas	Callahan_County,_Texas	-99.37293	32.29732	13943	Texas	0722e674	United States	f4aa12bb	0722e674
0014fe1b	CountyAdminArea	12588979	Callaway County, Missouri	Callaway_County,_Missouri	-91.92993	38.81105	44743	Missouri	2fa59461	United States	f4aa12bb	2fa59461
fb066367	CountyAdminArea	12588493	Calloway County, Kentucky	Calloway_County,_Kentucky	-88.26083	36.62373	39001	Kentucky	c32ba685	United States	f4aa12bb	c32ba685
1b0de758	CountyAdminArea	12590541	Calumet County, Wisconsin	Calumet_County,_Wisconsin	-88.22293	44.06781	50089	Wisconsin	a5a6fe10	United States	f4aa12bb	a5a6fe10
5d6c6ef5	CountyAdminArea	12588680	Calvert County, Maryland	Calvert_County,_Maryland	-76.5453	38.53855	92525	Maryland	9a2d1dc0	United States	f4aa12bb	9a2d1dc0
358259da	CountyAdminArea	12588046	Camas County, Idaho	Camas_County,_Idaho	-114.73066	43.52835	1106	Idaho	342f5b41	United States	f4aa12bb	342f5b41
85d34533	Country	23424776	Cambodia	Cambodia	104.98386	12.54773	16249798					1713c6c2
53f2f099	CountyAdminArea	12589738	Cambria County, Pennsylvania	Cambria_County,_Pennsylvania	-78.7023	40.48432	130192	Pennsylvania	08e34ff1	United States	f4aa12bb	08e34ff1
4dabbe6f	CountyAdminArea	12587889	Camden County, Georgia	Camden_County,_Georgia	-81.66929	30.93908	54666	Georgia	713f340f	United States	f4aa12bb	713f340f
20a43df0	CountyAdminArea	12588980	Camden County, Missouri	Camden_County,_Missouri	-92.74413	38.03488	46305	Missouri	2fa59461	United States	f4aa12bb	2fa59461
202b2613	CountyAdminArea	12589261	Camden County, New Jersey	Camden_County,_New_Jersey	-74.93833	39.8021	506471	New Jersey	8fdbe72c	United States	f4aa12bb	8fdbe72c
eafa9d29	CountyAdminArea	12589388	Camden County, North Carolina	Camden_County,_North_Carolina	-76.04641	36.3574	10867	North Carolina	2a863897	United States	f4aa12bb	2a863897
3c024edc	CountyAdminArea	12589739	Cameron County, Pennsylvania	Cameron_County,_Pennsylvania	-78.20478	41.41761	4447	Pennsylvania	08e34ff1	United States	f4aa12bb	08e34ff1
963bf00a	CountyAdminArea	12590037	Cameron County, Texas	Cameron_County,_Texas	-97.50377	26.12387	423163	Texas	0722e674	United States	f4aa12bb	0722e674
44e80e00	CountyAdminArea	12588607	Cameron Parish, Louisiana	Cameron_Parish,_Louisiana	-92.97962	29.81596	6973	Louisiana	d8434284	United States	f4aa12bb	d8434284
322636a6	Country	23424785	Cameroon	Cameroon	12.34344	7.36529	25216237					1713c6c2
e9032844	CityTown|CountyAdminArea	737986	Caminha	Caminha	-8.83838	41.87572	16085			Portugal	a2222b56	a2222b56
9447f9ff	CountyAdminArea	12590038	Camp County, Texas	Camp_County,_Texas	-94.93715	32.98986	13094	Texas	0722e674	United States	f4aa12bb	0722e674
5f937fcd	StateAdminArea	7153333	Campania	Campania	14.7842	40.7487	5869029			Italy	09edd772	09edd772
461d5108	CountyAdminArea	12588494	Campbell County, Kentucky	Campbell_County,_Kentucky	-84.36903	38.96388	93584	Kentucky	c32ba685	United States	f4aa12bb	c32ba685
1abefee7	CountyAdminArea	12589855	Campbell County, South Dakota	Campbell_County,_South_Dakota	-100.11464	45.76845	1376	South Dakota	d3a484f3	United States	f4aa12bb	d3a484f3
81935b2d	CountyAdminArea	12589918	Campbell County, Tennessee	Campbell_County,_Tennessee	-84.13815	36.38475	39842	Tennessee	487c4d03	United States	f4aa12bb	487c4d03
f74dfda8	CountyAdminArea	12590323	Campbell County, Virginia	Campbell_County,_Virginia	-79.13375	37.2169	54885	Virginia	b8fc73b9	United States	f4aa12bb	b8fc73b9
8ff9e6b5	CountyAdminArea	12590608	Campbell County, Wyoming	Campbell_County,_Wyoming	-105.54685	44.24766	46341	Wyoming	fa783aae	United States	f4aa12bb	fa783aae
91a4263f	Country	23424775	Canada	Canada	-98.30897	56.95468	37057765					1713c6c2
f21fb7c1	CountyAdminArea	12589623	Canadian County, Oklahoma	Canadian_County,_Oklahoma	-97.99219	35.52355	148306	Oklahoma	ca8120a2	United States	f4aa12bb	ca8120a2
9428d6f9	StateAdminArea	12578031	Canary Islands	Canary_Islands	-16.52266	28.29328	2153389			Spain	3e596022	3e596022
dd8c28ba	CountyAdminArea	12587890	Candler County, Georgia	Candler_County,_Georgia	-82.08654	32.41381	10803	Georgia	713f340f	United States	f4aa12bb	713f340f
c565e386	CountyAdminArea	12589919	Cannon County, Tennessee	Cannon_County,_Tennessee	-86.04469	35.80872	14678	Tennessee	487c4d03	United States	f4aa12bb	487c4d03
178aa6cc	CountyAdminArea|StateAdminArea		Cantabria	Cantabria	-4.0	43.333332	580229			Spain	3e596022	3e596022
26e74af6	CityTown|CountyAdminArea	738145	Cantanhede, Portugal	Cantanhede,_Portugal	-8.59303	40.34654	37141			Portugal	a2222b56	Coimbra_District
3655ae31	StateAdminArea	2347083	Canton of Aargau	Canton_of_Aargau	8.08404	47.37915	550900			Switzerland	3479840c	3479840c
571e8061	StateAdminArea	2347084	Canton of Appenzell Ausserrhoden	Canton_of_Appenzell_Ausserrhoden	9.46896	47.35768	53200			Switzerland	3479840c	3479840c
4dc5be99	StateAdminArea		Canton of Basel-Landschaft	Canton_of_Basel-Landschaft	7.733333	47.11667	289527					
1982b8e7	StateAdminArea	2347086	Canton of Basel-Stadt	Canton_of_Basel-Stadt	7.64819	47.56011	186700			Switzerland	3479840c	3479840c
94a63f6f	StateAdminArea	2347087	Canton of Bern	Canton_of_Bern	7.65805	46.83585	947100			Switzerland	3479840c	3479840c
5f0f060c	StateAdminArea	2347088	Canton of Fribourg	Canton_of_Fribourg	7.08755	46.72228	239100			Switzerland	3479840c	3479840c
5fba0c57	StateAdminArea	2347089	Canton of Geneva	Canton_of_Geneva	6.13302	46.2232	414300			Switzerland	3479840c	3479840c
fec6b23c	StateAdminArea	2347090	Canton of Glarus	Canton_of_Glarus	9.06207	46.98518	38300			Switzerland	3479840c	3479840c
85569b1f	StateAdminArea	2347091	Canton of Grisons	Canton_of_Grisons	9.57142	46.61724	185700			Switzerland	3479840c	3479840c
bb487e3d	StateAdminArea	2347108	Canton of Jura	Canton_of_Jura	7.19955	47.32742	69100			Switzerland	3479840c	3479840c
889ba542	StateAdminArea	2347093	Canton of Lucerne	Canton_of_Lucerne	8.17523	47.0311	350600			Switzerland	3479840c	3479840c
fa117e09	StateAdminArea		Canton of Neuchâtel	Canton_of_Neuch%C3%A2tel	6.783333	46.983334	176850					
3be26e80	StateAdminArea	2347095	Canton of Nidwalden	Canton_of_Nidwalden	8.39661	46.8958	38600			Switzerland	3479840c	3479840c
19214a39	StateAdminArea	2347096	Canton of Obwalden	Canton_of_Obwalden	8.2055	46.86705	32700			Switzerland	3479840c	3479840c
02cc481b	StateAdminArea	2347098	Canton of Schaffhausen	Canton_of_Schaffhausen	8.57289	47.72327	73400			Switzerland	3479840c	3479840c
0df3366a	StateAdminArea	2347099	Canton of Schwyz	Canton_of_Schwyz	8.69675	47.05406	131400			Switzerland	3479840c	3479840c
12546620	StateAdminArea	2347100	Canton of Solothurn	Canton_of_Solothurn	7.77478	47.28562	245500			Switzerland	3479840c	3479840c
2fe9aa8b	StateAdminArea	2347097	Canton of St. Gallen	Canton_of_St._Gallen	9.23488	47.20236	452600			Switzerland	3479840c	3479840c
2dcfa2b0	StateAdminArea	2347101	Canton of Thurgau	Canton_of_Thurgau	9.05425	47.53553	228200			Switzerland	3479840c	3479840c
dd3ff03d	StateAdminArea	2347102	Canton of Ticino	Canton_of_Ticino	8.77111	46.22529	311900			Switzerland	3479840c	3479840c
268aa058	StateAdminArea	2347103	Canton of Uri	Canton_of_Uri	8.67737	46.76045	35000			Switzerland	3479840c	3479840c
4efc9bc5	StateAdminArea	2347104	Canton of Valais	Canton_of_Valais	7.6244	46.25605	278200			Switzerland	3479840c	3479840c
f8d98274	StateAdminArea	2347106	Canton of Zug	Canton_of_Zug	8.54796	47.1648	100900			Switzerland	3479840c	3479840c
5f2d8c90	StateAdminArea	2347107	Canton of Zürich	Canton_of_Z%C3%BCrich	8.67153	47.42694	1228600			Switzerland	3479840c	3479840c
9bc8456f	CountyAdminArea	12588047	Canyon County, Idaho	Canyon_County,_Idaho	-116.75259	43.58537	229849	Idaho	342f5b41	United States	f4aa12bb	342f5b41
1601f46d	CountyAdminArea	12588981	Cape Girardeau County, Missouri	Cape_Girardeau_County,_Missouri	-89.64374	37.36629	78871	Missouri	2fa59461	United States	f4aa12bb	2fa59461
78a66e59	CountyAdminArea	12589262	Cape May County, New Jersey	Cape_May_County,_New_Jersey	-74.76154	39.12655	92039	New Jersey	8fdbe72c	United States	f4aa12bb	8fdbe72c
1f4033e2	Country|Island	23424794	Cape Verde	Cape_Verde	-23.61476	15.1123	543767					1713c6c2
507ccf6b	CountyAdminArea	12589085	Carbon County, Montana	Carbon_County,_Montana	-108.94822	45.31876	10725	Montana	50f779e5	United States	f4aa12bb	50f779e5
04fec4ed	CountyAdminArea	12589740	Carbon County, Pennsylvania	Carbon_County,_Pennsylvania	-75.73488	40.93465	64182	Pennsylvania	08e34ff1	United States	f4aa12bb	08e34ff1
271c0243	CountyAdminArea	12590264	Carbon County, Utah	Carbon_County,_Utah	-110.56076	39.64072	20463	Utah	6c0dccb8	United States	f4aa12bb	6c0dccb8
bfc42f52	CountyAdminArea	12590609	Carbon County, Wyoming	Carbon_County,_Wyoming	-106.99921	41.71692	14800	Wyoming	fa783aae	United States	f4aa12bb	fa783aae
887b6283	Country	56558056	Caribbean Netherlands	Caribbean_Netherlands	-68.24336	12.16084	25157			Netherlands	0442593b	0442593b
94f76fac	CountyAdminArea	12588048	Caribou County, Idaho	Caribou_County,_Idaho	-111.59667	42.71887	7155	Idaho	342f5b41	United States	f4aa12bb	342f5b41
d51db55c	StateAdminArea	2344709	Carinthia	Carinthia	13.86081	46.75148	560753			Austria	a4da20c4	a4da20c4
dbfcea2c	CountyAdminArea	12588495	Carlisle County, Kentucky	Carlisle_County,_Kentucky	-88.99605	36.86314	4760	Kentucky	c32ba685	United States	f4aa12bb	c32ba685
f3e3e7ed	CountyAdminArea	12588805	Carlton County, Minnesota	Carlton_County,_Minnesota	-92.6782	46.59306	35871	Minnesota	11f1fa88	United States	f4aa12bb	11f1fa88
9d964871	CountyAdminArea	12588681	Caroline County, Maryland	Caroline_County,_Maryland	-75.86128	38.88936	33406	Maryland	9a2d1dc0	United States	f4aa12bb	9a2d1dc0
ed20f7d7	CountyAdminArea	12590324	Caroline County, Virginia	Caroline_County,_Virginia	-77.35606	38.01467	30725	Virginia	b8fc73b9	United States	f4aa12bb	b8fc73b9
318a6f5f	CityTown|CountyAdminArea		Carregal do Sal	Carregal_do_Sal	-8.0	40.433334						
977d76d8	CountyAdminArea	12587602	Carroll County, Arkansas	Carroll_County,_Arkansas	-93.59319	36.31041	28380	Arkansas	23c77423	United States	f4aa12bb	23c77423
fda68db6	CountyAdminArea	12587891	Carroll County, Georgia	Carroll_County,_Georgia	-85.07377	33.61902	119992	Georgia	713f340f	United States	f4aa12bb	713f340f
55b27cd0	CountyAdminArea	12588085	Carroll County, Illinois	Carroll_County,_Illinois	-90.00092	42.06417	14305	Illinois	33204009	United States	f4aa12bb	33204009
aa435462	CountyAdminArea	12588187	Carroll County, Indiana	Carroll_County,_Indiana	-86.57373	40.58427	20257	Indiana	2e86d5a1	United States	f4aa12bb	2e86d5a1
d22b7322	CountyAdminArea	12588285	Carroll County, Iowa	Carroll_County,_Iowa	-94.86086	42.03598	20165	Iowa	12a2001f	United States	f4aa12bb	12a2001f
27c168fe	CountyAdminArea	12588496	Carroll County, Kentucky	Carroll_County,_Kentucky	-85.13368	38.6708	10631	Kentucky	c32ba685	United States	f4aa12bb	c32ba685
cc676f0f	CountyAdminArea	12588682	Carroll County, Maryland	Carroll_County,_Maryland	-77.04943	39.53465	168447	Maryland	9a2d1dc0	United States	f4aa12bb	9a2d1dc0
fcf56b9c	CountyAdminArea	12588891	Carroll County, Mississippi	Carroll_County,_Mississippi	-89.90995	33.44564	9947	Mississippi	264d2a09	United States	f4aa12bb	264d2a09
de32d0d0	CountyAdminArea	12588982	Carroll County, Missouri	Carroll_County,_Missouri	-93.43188	39.4108	8679	Missouri	2fa59461	United States	f4aa12bb	2fa59461
334acc5c	CountyAdminArea	12589249	Carroll County, New Hampshire	Carroll_County,_New_Hampshire	-71.2582	43.88421	48910	New Hampshire	f51b0193	United States	f4aa12bb	f51b0193
f573f68f	CountyAdminArea	12589536	Carroll County, Ohio	Carroll_County,_Ohio	-81.09115	40.57693	26914	Ohio	d74c75f2	United States	f4aa12bb	d74c75f2
4faf8a0d	CountyAdminArea	12589920	Carroll County, Tennessee	Carroll_County,_Tennessee	-88.44229	35.96987	27767	Tennessee	487c4d03	United States	f4aa12bb	487c4d03
62267a6b	CountyAdminArea	12590325	Carroll County, Virginia	Carroll_County,_Virginia	-80.74812	36.745	29791	Virginia	b8fc73b9	United States	f4aa12bb	b8fc73b9
8872a69a	CityTown|CountyAdminArea	12589231	Carson City, Nevada	Carson_City,_Nevada	-119.77643	39.16787	55916	Nevada	31b0fe72	United States	f4aa12bb	31b0fe72
d2b4155a	CountyAdminArea	12590039	Carson County, Texas	Carson_County,_Texas	-101.35448	35.40346	5926	Texas	0722e674	United States	f4aa12bb	0722e674
63646130	CityTown|CountyAdminArea	738409	Cartaxo	Cartaxo	-8.78673	39.16074	21692	Santarém, Portugal	9f5562f7	Portugal	a2222b56	9f5562f7
c966380d	CountyAdminArea	12588497	Carter County, Kentucky	Carter_County,_Kentucky	-83.05652	38.33633	26797	Kentucky	c32ba685	United States	f4aa12bb	c32ba685
dae6fb54	CountyAdminArea	12588983	Carter County, Missouri	Carter_County,_Missouri	-90.94301	36.95546	5982	Missouri	2fa59461	United States	f4aa12bb	2fa59461
6beed2ad	CountyAdminArea	12589086	Carter County, Montana	Carter_County,_Montana	-104.539	45.56737	1252	Montana	50f779e5	United States	f4aa12bb	50f779e5
87f1f802	CountyAdminArea	12589624	Carter County, Oklahoma	Carter_County,_Oklahoma	-97.24792	34.28893	48111	Oklahoma	ca8120a2	United States	f4aa12bb	ca8120a2
fbf6ab26	CountyAdminArea	12589921	Carter County, Tennessee	Carter_County,_Tennessee	-82.13768	36.30687	56391	Tennessee	487c4d03	United States	f4aa12bb	487c4d03
73759afd	CountyAdminArea	12589389	Carteret County, North Carolina	Carteret_County,_North_Carolina	-76.51222	34.87421	69473	North Carolina	2a863897	United States	f4aa12bb	2a863897
365e206f	CountyAdminArea	12588806	Carver County, Minnesota	Carver_County,_Minnesota	-93.76621	44.80655	105089	Minnesota	11f1fa88	United States	f4aa12bb	11f1fa88
4c7f8df5	StateAdminArea		Casablanca-Settat	Casablanca-Settat	-8.14	33.15	6861739			Morocco	7040f25f	7040f25f
1ba58067	CountyAdminArea	12589087	Cascade County, Montana	Cascade_County,_Montana	-111.34215	47.25871	81366	Montana	50f779e5	United States	f4aa12bb	50f779e5
20e7c1c4	CityTown	739040	Cascais	Cascais	-9.42038	38.69669	152191			Portugal	a2222b56	a2222b56
a503946e	CountyAdminArea	12588498	Casey County, Kentucky	Casey_County,_Kentucky	-84.93597	37.32688	16159	Kentucky	c32ba685	United States	f4aa12bb	c32ba685
63fadaeb	CountyAdminArea	12588086	Cass County, Illinois	Cass_County,_Illinois	-90.28908	39.99905	12147	Illinois	33204009	United States	f4aa12bb	33204009
0ef7dfc1	CountyAdminArea	12588188	Cass County, Indiana	Cass_County,_Indiana	-86.37334	40.73604	37689	Indiana	2e86d5a1	United States	f4aa12bb	2e86d5a1
396cb3b3	CountyAdminArea	12588286	Cass County, Iowa	Cass_County,_Iowa	-94.92789	41.33158	12836	Iowa	12a2001f	United States	f4aa12bb	12a2001f
057192d4	CountyAdminArea	12588727	Cass County, Michigan	Cass_County,_Michigan	-85.99306	41.91525	51787	Michigan	12ff3a85	United States	f4aa12bb	12ff3a85
6875936d	CountyAdminArea	12588807	Cass County, Minnesota	Cass_County,_Minnesota	-94.27985	46.87858	29779	Minnesota	11f1fa88	United States	f4aa12bb	11f1fa88
61027add	CountyAdminArea	12588984	Cass County, Missouri	Cass_County,_Missouri	-94.33865	38.64634	105780	Missouri	2fa59461	United States	f4aa12bb	2fa59461
8c066561	CountyAdminArea	12589150	Cass County, Nebraska	Cass_County,_Nebraska	-96.13689	40.92483	26248	Nebraska	99e8e943	United States	f4aa12bb	99e8e943
da240cc9	CountyAdminArea	12589482	Cass County, North Dakota	Cass_County,_North_Dakota	-97.22928	46.93431	181923	North Dakota	ba23d922	United States	f4aa12bb	ba23d922
b6ea33ec	CountyAdminArea	12590040	Cass County, Texas	Cass_County,_Texas	-94.34844	33.09555	30026	Texas	0722e674	United States	f4aa12bb	0722e674
84a4a9ba	CountyAdminArea	12588049	Cassia County, Idaho	Cassia_County,_Idaho	-113.64365	42.33789	24030	Idaho	342f5b41	United States	f4aa12bb	342f5b41
e0d5aaa5	CityTown|CountyAdminArea		Castelo Branco, Portugal	Castelo_Branco,_Portugal	-7.5	39.816666						
4ff8cc29	CityTown|CountyAdminArea	23388194	Castelo de Paiva	Castelo_de_Paiva	-8.27475	41.04483	16551			Portugal	a2222b56	a2222b56
86adaae8	StateAdminArea		Castile and León	Castile_and_Le%C3%B3n	-4.45	41.38333	2447519			Spain	3e596022	3e596022
ec640776	StateAdminArea	12578032	Castilla–La Mancha	Castilla%E2%80%93La_Mancha	-3.16126	39.67504	2041631			Spain	3e596022	3e596022
996fbbab	CountyAdminArea	12590041	Castro County, Texas	Castro_County,_Texas	-102.26191	34.53053	7530	Texas	0722e674	United States	f4aa12bb	0722e674
90dc6937	CityTown|CountyAdminArea	739176	Castro Daire	Castro_Daire	-7.93496	40.90246	18109			Portugal	a2222b56	a2222b56
5bf74026	CityTown		Castro Marim	Castro_Marim	-7.45	37.216667						
f12a01b4	CountyAdminArea	12589390	Caswell County, North Carolina	Caswell_County,_North_Carolina	-79.3348	36.39203	22604	North Carolina	2a863897	United States	f4aa12bb	2a863897
35a04ddb	CountyAdminArea	12588608	Catahoula Parish, Louisiana	Catahoula_Parish,_Louisiana	-91.91692	31.59588	9494	Louisiana	d8434284	United States	f4aa12bb	d8434284
8055a552	StateAdminArea	12578034	Catalonia	Catalonia	1.74161	41.69216	7522596			Spain	3e596022	3e596022
b3709eaa	CountyAdminArea	12589391	Catawba County, North Carolina	Catawba_County,_North_Carolina	-81.22933	35.6886	159551	North Carolina	2a863897	United States	f4aa12bb	2a863897
cbb2d2af	CountyAdminArea	12587892	Catoosa County, Georgia	Catoosa_County,_Georgia	-85.12246	34.8776	67580	Georgia	713f340f	United States	f4aa12bb	713f340f
dd35c15c	CountyAdminArea	12589280	Catron County, New Mexico	Catron_County,_New_Mexico	-108.37952	33.89095	3527	New Mexico	5c684afa	United States	f4aa12bb	5c684afa
c16a4798	CountyAdminArea	12589316	Cattaraugus County, New York	Cattaraugus_County,_New_York	-78.6847	42.27038	76117	New York (state)	f7a12080	United States	f4aa12bb	f7a12080
c6a8b34a	CountyAdminArea	12589483	Cavalier County, North Dakota	Cavalier_County,_North_Dakota	-98.46393	48.77174	3762	North Dakota	ba23d922	United States	f4aa12bb	ba23d922
1805ba62	Country	23424783	Cayman Islands	Cayman_Islands	-81.25216	19.33002	64174					1713c6c2
9b93fe0b	CountyAdminArea	12589317	Cayuga County, New York	Cayuga_County,_New_York	-76.50302	43.01702	76576	New York (state)	f7a12080	United States	f4aa12bb	f7a12080
657628ab	CountyAdminArea	12588683	Cecil County, Maryland	Cecil_County,_Maryland	-75.81878	39.54178	102855	Maryland	9a2d1dc0	United States	f4aa12bb	9a2d1dc0
b4200946	CountyAdminArea	12588287	Cedar County, Iowa	Cedar_County,_Iowa	-91.13236	41.77215	18627	Iowa	12a2001f	United States	f4aa12bb	12a2001f
ca0396a7	CountyAdminArea	12588985	Cedar County, Missouri	Cedar_County,_Missouri	-93.84241	37.7367	14349	Missouri	2fa59461	United States	f4aa12bb	2fa59461
2fbc7d57	CountyAdminArea	12589151	Cedar County, Nebraska	Cedar_County,_Nebraska	-97.25046	42.60794	8402	Nebraska	99e8e943	United States	f4aa12bb	99e8e943
70d287cc	CityTown	739283	Celorico da Beira	Celorico_da_Beira	-7.39285	40.63577	8861			Portugal	a2222b56	a2222b56
f916812b	CityTown|CountyAdminArea	739284	Celorico de Basto	Celorico_de_Basto	-8.04201	41.40351	21647			Portugal	a2222b56	a2222b56
bbae5646	Country	23424792	Central African Republic	Central_African_Republic	20.94176	6.61404	4666377					1713c6c2
428b60bd	StateAdminArea	7153314	Centre-Val de Loire	Centre-Val_de_Loire	1.59075	47.64407	2538000			France	dc3805d4	dc3805d4
2a7280cd	CountyAdminArea	12589741	Centre County, Pennsylvania	Centre_County,_Pennsylvania	-77.76019	40.97225	162385	Pennsylvania	08e34ff1	United States	f4aa12bb	08e34ff1
43f2a4e0	CountyAdminArea	12588288	Cerro Gordo County, Iowa	Cerro_Gordo_County,_Iowa	-93.26081	43.08154	42450	Iowa	12a2001f	United States	f4aa12bb	12a2001f
ef10086e	CityTown	757400	Ceuta	Ceuta	-5.321	35.88957	82376			Spain	3e596022	3e596022
53d9fb01	Country	23424777	Chad	Chad	18.73877	15.4603	15477751					1713c6c2
aedf5645	CountyAdminArea	12587735	Chaffee County, Colorado	Chaffee_County,_Colorado	-106.23888	38.74002	20356	Colorado	dd0a216b	United States	f4aa12bb	dd0a216b
ec7c657e	CountyAdminArea	12587495	Chambers County, Alabama	Chambers_County,_Alabama	-85.35803	32.91879	33254	Alabama	ffba01d8	United States	f4aa12bb	ffba01d8
71a7315d	CountyAdminArea	12590042	Chambers County, Texas	Chambers_County,_Texas	-94.66842	29.70752	43837	Texas	0722e674	United States	f4aa12bb	0722e674
2ebe2019	CountyAdminArea	12588087	Champaign County, Illinois	Champaign_County,_Illinois	-88.19619	40.13986	209689	Illinois	33204009	United States	f4aa12bb	33204009
bfb9c3fd	CountyAdminArea	12589537	Champaign County, Ohio	Champaign_County,_Ohio	-83.76537	40.14181	38885	Ohio	d74c75f2	United States	f4aa12bb	d74c75f2
4ea8f655	CityTown|CountyAdminArea		Chamusca	Chamusca	-8.483333	39.35						
19006471	CityTown|StateAdminArea	2295391	Chandigarh	Chandigarh	76.78219	30.71868	900635			India	beea9395	beea9395
be40ba66	StateAdminArea	24548836	Channel Islands	Channel_Islands	-2.13317	49.21283	170084			United Kingdom	73b0ef39	73b0ef39
dd837426	CountyAdminArea	12588986	Chariton County, Missouri	Chariton_County,_Missouri	-92.98849	39.46435	7426	Missouri	2fa59461	United States	f4aa12bb	2fa59461
8d979322	CountyAdminArea	12590326	Charles City County, Virginia	Charles_City_County,_Virginia	-77.06939	37.36211	6963	Virginia	b8fc73b9	United States	f4aa12bb	b8fc73b9
0b4f4658	CountyAdminArea	12588684	Charles County, Maryland	Charles_County,_Maryland	-76.97305	38.47722	163257	Maryland	9a2d1dc0	United States	f4aa12bb	9a2d1dc0
9ffb7927	CountyAdminArea	12589856	Charles Mix County, South Dakota	Charles_Mix_County,_South_Dakota	-98.69009	43.16856	9292	South Dakota	d3a484f3	United States	f4aa12bb	d3a484f3
a6e89148	CountyAdminArea	12589809	Charleston County, South Carolina	Charleston_County,_South_Carolina	-80.16085	32.75755	411406	South Carolina	540d0a4b	United States	f4aa12bb	540d0a4b
8cf0bb0a	CountyAdminArea	12588728	Charlevoix County, Michigan	Charlevoix_County,_Michigan	-85.06178	45.24425	26143	Michigan	12ff3a85	United States	f4aa12bb	12ff3a85
484c3adf	CountyAdminArea	12587810	Charlotte County, Florida	Charlotte_County,_Florida	-81.90893	26.90207	188910	Florida	ac78ae1d	United States	f4aa12bb	ac78ae1d
f8a79a0d	CountyAdminArea	12590327	Charlotte County, Virginia	Charlotte_County,_Virginia	-78.67397	36.97378	11880	Virginia	b8fc73b9	United States	f4aa12bb	b8fc73b9
bf9d6faa	CityTown|CountyAdminArea	12590328	Charlottesville, Virginia	Charlottesville,_Virginia	-78.48527	38.04019	47266	Virginia	b8fc73b9	United States	f4aa12bb	b8fc73b9
1b68a7a7	CountyAdminArea	12587893	Charlton County, Georgia	Charlton_County,_Georgia	-82.15658	30.71553	13392	Georgia	713f340f	United States	f4aa12bb	713f340f
aae7153e	CountyAdminArea	12588379	Chase County, Kansas	Chase_County,_Kansas	-96.59745	38.30405	2648	Kansas	2d125485	United States	f4aa12bb	2d125485
6e32374f	CountyAdminArea	12589152	Chase County, Nebraska	Chase_County,_Nebraska	-101.69719	40.52472	3924	Nebraska	99e8e943	United States	f4aa12bb	99e8e943
c54d75b3	CountyAdminArea	12587894	Chatham County, Georgia	Chatham_County,_Georgia	-81.11627	31.97913	289430	Georgia	713f340f	United States	f4aa12bb	713f340f
8ac1e654	CountyAdminArea	12589392	Chatham County, North Carolina	Chatham_County,_North_Carolina	-79.23109	35.69582	74470	North Carolina	2a863897	United States	f4aa12bb	2a863897
864cf5f8	CountyAdminArea	12587895	Chattahoochee County, Georgia	Chattahoochee_County,_Georgia	-84.82256	32.37854	10907	Georgia	713f340f	United States	f4aa12bb	713f340f
1bd1e296	CountyAdminArea	12587896	Chattooga County, Georgia	Chattooga_County,_Georgia	-85.31757	34.43766	24789	Georgia	713f340f	United States	f4aa12bb	713f340f
a3e88d76	CountyAdminArea	12588380	Chautauqua County, Kansas	Chautauqua_County,_Kansas	-96.24494	37.15073	3250	Kansas	2d125485	United States	f4aa12bb	2d125485
f97a5a7d	CountyAdminArea	12589318	Chautauqua County, New York	Chautauqua_County,_New_York	-79.41061	42.28428	126903	New York (state)	f7a12080	United States	f4aa12bb	f7a12080
43b316af	CityTown	739513	Chaves, Portugal	Chaves,_Portugal	-7.46317	41.73581	41639			Portugal	a2222b56	a2222b56
839ed9f2	CountyAdminArea	12589281	Chaves County, New Mexico	Chaves_County,_New_Mexico	-104.43171	33.30366	64615	New Mexico	5c684afa	United States	f4aa12bb	5c684afa
3f3d552f	CountyAdminArea	12589922	Cheatham County, Tennessee	Cheatham_County,_Tennessee	-87.10254	36.26823	40667	Tennessee	487c4d03	United States	f4aa12bb	487c4d03
62169c12	CountyAdminArea	12588729	Cheboygan County, Michigan	Cheboygan_County,_Michigan	-84.49033	45.4935	25276	Michigan	12ff3a85	United States	f4aa12bb	12ff3a85
04bce35d	CountyAdminArea	12590443	Chelan County, Washington	Chelan_County,_Washington	-120.5204	47.90589	77200	Washington	4211c98d	United States	f4aa12bb	4211c98d
d3dbabb3	CountyAdminArea	12589319	Chemung County, New York	Chemung_County,_New_York	-76.75121	42.14705	83456	New York (state)	f7a12080	United States	f4aa12bb	f7a12080
cfcab540	CountyAdminArea	12589320	Chenango County, New York	Chenango_County,_New_York	-75.59128	42.47018	47207	New York (state)	f7a12080	United States	f4aa12bb	f7a12080
aa78d721	CountyAdminArea	12587496	Cherokee County, Alabama	Cherokee_County,_Alabama	-85.62135	34.23394	26196	Alabama	ffba01d8	United States	f4aa12bb	ffba01d8
eb03e0be	CountyAdminArea	12587897	Cherokee County, Georgia	Cherokee_County,_Georgia	-84.45954	34.24296	258773	Georgia	713f340f	United States	f4aa12bb	713f340f
97ca608a	CountyAdminArea	12588289	Cherokee County, Iowa	Cherokee_County,_Iowa	-95.62413	42.73547	11235	Iowa	12a2001f	United States	f4aa12bb	12a2001f
d54b7ee9	CountyAdminArea	12588381	Cherokee County, Kansas	Cherokee_County,_Kansas	-94.84633	37.16924	19939	Kansas	2d125485	United States	f4aa12bb	2d125485
a529c8a3	CountyAdminArea	12589393	Cherokee County, North Carolina	Cherokee_County,_North_Carolina	-84.00594	35.13956	28612	North Carolina	2a863897	United States	f4aa12bb	2a863897
efa26da5	CountyAdminArea	12589625	Cherokee County, Oklahoma	Cherokee_County,_Oklahoma	-95.04012	35.90002	48657	Oklahoma	ca8120a2	United States	f4aa12bb	ca8120a2
95ea0613	CountyAdminArea	12589810	Cherokee County, South Carolina	Cherokee_County,_South_Carolina	-81.62079	35.01158	57300	South Carolina	540d0a4b	United States	f4aa12bb	540d0a4b
203f7304	CountyAdminArea	12590043	Cherokee County, Texas	Cherokee_County,_Texas	-95.16382	31.78202	52646	Texas	0722e674	United States	f4aa12bb	0722e674
d11939dc	CountyAdminArea	12589153	Cherry County, Nebraska	Cherry_County,_Nebraska	-101.12621	42.5427	5689	Nebraska	99e8e943	United States	f4aa12bb	99e8e943
7cbefd54	CityTown|CountyAdminArea	2379200	Chesapeake, Virginia	Chesapeake,_Virginia	-76.30222	36.70849	244835	Virginia	b8fc73b9	United States	f4aa12bb	b8fc73b9
9b1ae75c	CountyAdminArea	12589250	Cheshire County, New Hampshire	Cheshire_County,_New_Hampshire	-72.24298	42.94712	76085	New Hampshire	f51b0193	United States	f4aa12bb	f51b0193
c1beed3a	CountyAdminArea	12589742	Chester County, Pennsylvania	Chester_County,_Pennsylvania	-75.7486	39.9833	524989	Pennsylvania	08e34ff1	United States	f4aa12bb	08e34ff1
006311a0	CountyAdminArea	12589811	Chester County, South Carolina	Chester_County,_South_Carolina	-81.17392	34.68279	32244	South Carolina	540d0a4b	United States	f4aa12bb	540d0a4b
7101172a	CountyAdminArea	12589923	Chester County, Tennessee	Chester_County,_Tennessee	-88.59696	35.41996	17297	Tennessee	487c4d03	United States	f4aa12bb	487c4d03
12e8fe82	CountyAdminArea	12589812	Chesterfield County, South Carolina	Chesterfield_County,_South_Carolina	-80.17071	34.59139	45650	South Carolina	540d0a4b	United States	f4aa12bb	540d0a4b
dff053f3	CountyAdminArea	12590330	Chesterfield County, Virginia	Chesterfield_County,_Virginia	-77.56116	37.38987	352802	Virginia	b8fc73b9	United States	f4aa12bb	b8fc73b9
450df1f4	CountyAdminArea	12587736	Cheyenne County, Colorado	Cheyenne_County,_Colorado	-102.609	38.82972	1831	Colorado	dd0a216b	United States	f4aa12bb	dd0a216b
ca05538b	CountyAdminArea	12588382	Cheyenne County, Kansas	Cheyenne_County,_Kansas	-101.73081	39.78572	2657	Kansas	2d125485	United States	f4aa12bb	2d125485
104f07e3	CountyAdminArea	12589154	Cheyenne County, Nebraska	Cheyenne_County,_Nebraska	-102.99587	41.22055	8910	Nebraska	99e8e943	United States	f4aa12bb	99e8e943
e56f9a2f	StateAdminArea	20070464	Chhattisgarh	Chhattisgarh	82.31987	20.94526	25545198			India	beea9395	beea9395
24bfda25	CityTown	2379574	Chicago	Chicago	-87.63241	41.88415	2896016	Illinois	33204009	United States	f4aa12bb	006bfaf8
e44eb944	CountyAdminArea	12588290	Chickasaw County, Iowa	Chickasaw_County,_Iowa	-92.3177	43.06004	11933	Iowa	12a2001f	United States	f4aa12bb	12a2001f
1af37a37	CountyAdminArea	12588892	Chickasaw County, Mississippi	Chickasaw_County,_Mississippi	-88.95535	33.90698	17103	Mississippi	264d2a09	United States	f4aa12bb	264d2a09
3d0d70db	CountyAdminArea	12587603	Chicot County, Arkansas	Chicot_County,_Arkansas	-91.25197	33.28392	10118	Arkansas	23c77423	United States	f4aa12bb	23c77423
8459719d	CountyAdminArea	12590044	Childress County, Texas	Childress_County,_Texas	-100.20769	34.52963	7306	Texas	0722e674	United States	f4aa12bb	0722e674
56d89b84	Country	23424782	Chile	Chile	-71.34109	-35.70522	18729160					1713c6c2
35e3a899	CountyAdminArea	12587497	Chilton County, Alabama	Chilton_County,_Alabama	-86.69548	32.86599	44428	Alabama	ffba01d8	United States	f4aa12bb	ffba01d8
0ef420a9	Country	23424781	China	China	104.166	36.8944	1392730000					1713c6c2
7e1d3cdb	CountyAdminArea	12588730	Chippewa County, Michigan	Chippewa_County,_Michigan	-84.56868	46.35976	37349	Michigan	12ff3a85	United States	f4aa12bb	12ff3a85
c9c16958	CountyAdminArea	12588808	Chippewa County, Minnesota	Chippewa_County,_Minnesota	-95.64171	44.95179	11800	Minnesota	11f1fa88	United States	f4aa12bb	11f1fa88
36eff6f3	CountyAdminArea	12590542	Chippewa County, Wisconsin	Chippewa_County,_Wisconsin	-91.29429	45.07411	64658	Wisconsin	a5a6fe10	United States	f4aa12bb	a5a6fe10
143caa65	CountyAdminArea	12588809	Chisago County, Minnesota	Chisago_County,_Minnesota	-92.89431	45.51351	56579	Minnesota	11f1fa88	United States	f4aa12bb	11f1fa88
d2c4ef45	CountyAdminArea	12590293	Chittenden County, Vermont	Chittenden_County,_Vermont	-73.08245	44.44215	163774	Vermont	351cf73c	United States	f4aa12bb	351cf73c
9b4c1e15	CountyAdminArea	12587498	Choctaw County, Alabama	Choctaw_County,_Alabama	-88.20052	32.00402	12589	Alabama	ffba01d8	United States	f4aa12bb	ffba01d8
ae6f34fd	CountyAdminArea	12588893	Choctaw County, Mississippi	Choctaw_County,_Mississippi	-89.27111	33.321	8210	Mississippi	264d2a09	United States	f4aa12bb	264d2a09
63fee12c	CountyAdminArea	12589626	Choctaw County, Oklahoma	Choctaw_County,_Oklahoma	-95.57365	34.01038	14672	Oklahoma	ca8120a2	United States	f4aa12bb	ca8120a2
eacbdb84	CountyAdminArea	12589088	Chouteau County, Montana	Chouteau_County,_Montana	-110.47108	47.86104	5635	Montana	50f779e5	United States	f4aa12bb	50f779e5
011255e7	CountyAdminArea	12589394	Chowan County, North Carolina	Chowan_County,_North_Carolina	-76.65775	36.17876	13943	North Carolina	2a863897	United States	f4aa12bb	2a863897
302eb5c3	CountyAdminArea	12588088	Christian County, Illinois	Christian_County,_Illinois	-89.27953	39.58593	32304	Illinois	33204009	United States	f4aa12bb	33204009
